stop_id,stop_code,stop_name,stop_desc,stop_lat,stop_lon,zone_id,stop_url,location_type,parent_station
890000,890000,Stockland Aitkenvale (Elizabeth St),,-19.298296,146.764443,,http://translink.com.au/stop/890000/gtfs/,0,
890001,890001,Anne Street,,-19.290118,146.76625,,http://translink.com.au/stop/890001/gtfs/,0,
890002,890002,Vincent State School,,-19.2885,146.764279,,http://translink.com.au/stop/890002/gtfs/,0,
890003,890003,Vincent Village,,-19.288175,146.761828,,http://translink.com.au/stop/890003/gtfs/,0,
890004,890004,St James Village,,-19.288272,146.759731,,http://translink.com.au/stop/890004/gtfs/,0,
890005,890005,Heatley Park,,-19.287369,146.756899,,http://translink.com.au/stop/890005/gtfs/,0,
890006,890006,Heatley Secondary College,,-19.287961,146.753788,,http://translink.com.au/stop/890006/gtfs/,0,
890007,890007,Angus Ave,,-19.287308,146.75065,,http://translink.com.au/stop/890007/gtfs/,0,
890008,890008,Louisa Ck,,-19.283176,146.750317,,http://translink.com.au/stop/890008/gtfs/,0,
890009,890009,Pankina St,,-19.280726,146.750552,,http://translink.com.au/stop/890009/gtfs/,0,
890010,890010,High Vista Dr,,-19.27907,146.749587,,http://translink.com.au/stop/890010/gtfs/,0,
890011,890011,Galway Ct,,-19.277148,146.749635,,http://translink.com.au/stop/890011/gtfs/,0,
890012,890012,Banora Ct,,-19.274987,146.749876,,http://translink.com.au/stop/890012/gtfs/,0,
890013,890013,Hastings St,,-19.274647,146.748902,,http://translink.com.au/stop/890013/gtfs/,0,
890014,890014,Bennett St,,-19.273368,146.744059,,http://translink.com.au/stop/890014/gtfs/,0,
890015,890015,Stretton La,,-19.271329,146.744333,,http://translink.com.au/stop/890015/gtfs/,0,
890016,890016,Partridge St,,-19.271523,146.746374,,http://translink.com.au/stop/890016/gtfs/,0,
890017,890017,High Vista Park,,-19.271648,146.748637,,http://translink.com.au/stop/890017/gtfs/,0,
890018,890018,Greg Jabs Court,,-19.27251,146.755811,,http://translink.com.au/stop/890018/gtfs/,0,
890019,890019,Bayswater / Duckworth,,-19.273121,146.760981,,http://translink.com.au/stop/890019/gtfs/,0,
890020,890020,Pilkington St,,-19.273539,146.766027,,http://translink.com.au/stop/890020/gtfs/,0,
890021,890021,Bayswater / Mooney,,-19.274542,146.773203,,http://translink.com.au/stop/890021/gtfs/,0,
890022,890022,Trevor Street,,-19.274694,146.774687,,http://translink.com.au/stop/890022/gtfs/,0,
890023,890023,Ferguson St,,-19.27499,146.777581,,http://translink.com.au/stop/890023/gtfs/,0,
890024,890024,Reardon St,,-19.275233,146.77995,,http://translink.com.au/stop/890024/gtfs/,0,
890025,890025,Hugh St,,-19.275349,146.781268,,http://translink.com.au/stop/890025/gtfs/,0,
890026,890026,Bayswater / Hugh,,-19.275685,146.784398,,http://translink.com.au/stop/890026/gtfs/,0,
890027,890027,Hindley St,,-19.275995,146.787374,,http://translink.com.au/stop/890027/gtfs/,0,
890028,890028,Bayswater / Kings,,-19.276402,146.791657,,http://translink.com.au/stop/890028/gtfs/,0,
890029,890029,Castletown Shopping Centre,,-19.27306,146.79017,,http://translink.com.au/stop/890029/gtfs/,0,
890030,890030,Townsville Showgrounds,,-19.269367,146.79283,,http://translink.com.au/stop/890030/gtfs/,0,
890031,890031,Humphrey St,,-19.266749,146.793352,,http://translink.com.au/stop/890031/gtfs/,0,
890032,890032,North St,,-19.264824,146.793591,,http://translink.com.au/stop/890032/gtfs/,0,
890033,890033,Ralston St,,-19.261923,146.792243,,http://translink.com.au/stop/890033/gtfs/,0,
890034,890034,Cutheringa Park,,-19.25941,146.786577,,http://translink.com.au/stop/890034/gtfs/,0,
890035,890035,Stagpole St,,-19.255444,146.787566,,http://translink.com.au/stop/890035/gtfs/,0,
890036,890036,William St,,-19.254149,146.78781,,http://translink.com.au/stop/890036/gtfs/,0,
890037,890037,Old Common Rd,,-19.250341,146.789451,,http://translink.com.au/stop/890037/gtfs/,0,
890038,890038,Evans St,,-19.249163,146.791204,,http://translink.com.au/stop/890038/gtfs/,0,
890039,890039,Taylor  St,,-19.248379,146.792385,,http://translink.com.au/stop/890039/gtfs/,0,
890040,890040,Bishop St,,-19.246393,146.793746,,http://translink.com.au/stop/890040/gtfs/,0,
890041,890041,Marshall St (Belgian Gardens),,-19.245453,146.797454,,http://translink.com.au/stop/890041/gtfs/,0,
890042,890042,Howitt St,,-19.245007,146.799961,,http://translink.com.au/stop/890042/gtfs/,0,
890043,890043,Landsborough St,,-19.247371,146.805925,,http://translink.com.au/stop/890043/gtfs/,0,
890044,890044,Burke St,,-19.2494,146.809568,,http://translink.com.au/stop/890044/gtfs/,0,
890045,890045,Kennedy St,,-19.250717,146.811923,,http://translink.com.au/stop/890045/gtfs/,0,
890046,890046,Leichhardt St (North Ward),,-19.252344,146.814066,,http://translink.com.au/stop/890046/gtfs/,0,
890048,890048,Leichhardt St (North Ward),,-19.25204,146.813487,,http://translink.com.au/stop/890048/gtfs/,0,
890049,890049,Kennedy St,,-19.250682,146.811484,,http://translink.com.au/stop/890049/gtfs/,0,
890050,890050,Burke St,,-19.2483,146.807219,,http://translink.com.au/stop/890050/gtfs/,0,
890051,890051,Landsborough St,,-19.246709,146.804339,,http://translink.com.au/stop/890051/gtfs/,0,
890052,890052,Howitt St,,-19.245102,146.800859,,http://translink.com.au/stop/890052/gtfs/,0,
890053,890053,Marshall St (Belgian Gardens),,-19.245637,146.797594,,http://translink.com.au/stop/890053/gtfs/,0,
890054,890054,Taylor St,,-19.248755,146.792199,,http://translink.com.au/stop/890054/gtfs/,0,
890055,890055,Evans St,,-19.249302,146.791364,,http://translink.com.au/stop/890055/gtfs/,0,
890056,890056,Old Common Rd,,-19.250335,146.789829,,http://translink.com.au/stop/890056/gtfs/,0,
890057,890057,William St,,-19.25394,146.788075,,http://translink.com.au/stop/890057/gtfs/,0,
890058,890058,Stagpole St,,-19.255604,146.787745,,http://translink.com.au/stop/890058/gtfs/,0,
890059,890059,Harold St,,-19.257137,146.78746,,http://translink.com.au/stop/890059/gtfs/,0,
890060,890060,Cutheringa Park,,-19.259136,146.786881,,http://translink.com.au/stop/890060/gtfs/,0,
890061,890061,Crauford St,,-19.260714,146.789027,,http://translink.com.au/stop/890061/gtfs/,0,
890062,890062,Ralston St,,-19.261698,146.792234,,http://translink.com.au/stop/890062/gtfs/,0,
890063,890063,North St,,-19.265088,146.79365,,http://translink.com.au/stop/890063/gtfs/,0,
890064,890064,Humphrey St,,-19.266877,146.793424,,http://translink.com.au/stop/890064/gtfs/,0,
890065,890065,Townsville Showgrounds,,-19.269643,146.792968,,http://translink.com.au/stop/890065/gtfs/,0,
890066,890066,Bayswater/ Kings,,-19.276596,146.791535,,http://translink.com.au/stop/890066/gtfs/,0,
890067,890067,Latchford St,,-19.276341,146.789444,,http://translink.com.au/stop/890067/gtfs/,0,
890068,890068,Hindley St,,-19.275973,146.785836,,http://translink.com.au/stop/890068/gtfs/,0,
890069,890069,Bayswater / Hugh,,-19.275819,146.784339,,http://translink.com.au/stop/890069/gtfs/,0,
890070,890070,Reardon St,,-19.275357,146.779818,,http://translink.com.au/stop/890070/gtfs/,0,
890071,890071,Pilkington St,,-19.273944,146.76705,,http://translink.com.au/stop/890071/gtfs/,0,
890072,890072,Bayswater / Duckworth,,-19.273311,146.761233,,http://translink.com.au/stop/890072/gtfs/,0,
890073,890073,Greg Jabs Court,,-19.272837,146.756218,,http://translink.com.au/stop/890073/gtfs/,0,
890074,890074,Buchanan St,,-19.272306,146.750914,,http://translink.com.au/stop/890074/gtfs/,0,
890075,890075,High Vista Park,,-19.272063,146.749344,,http://translink.com.au/stop/890075/gtfs/,0,
890076,890076,Bennett St,,-19.27329,146.743919,,http://translink.com.au/stop/890076/gtfs/,0,
890077,890077,Hastings St,,-19.27441,146.747352,,http://translink.com.au/stop/890077/gtfs/,0,
890078,890078,Mt Louisa Dr,,-19.274628,146.749047,,http://translink.com.au/stop/890078/gtfs/,0,
890079,890079,Banora Ct,,-19.275132,146.749964,,http://translink.com.au/stop/890079/gtfs/,0,
890080,890080,Galway Ct,,-19.277291,146.749723,,http://translink.com.au/stop/890080/gtfs/,0,
890081,890081,High Vista Dr,,-19.279002,146.749674,,http://translink.com.au/stop/890081/gtfs/,0,
890082,890082,Pankina St,,-19.280739,146.750655,,http://translink.com.au/stop/890082/gtfs/,0,
890083,890083,Louisa Ck,,-19.283343,146.750327,,http://translink.com.au/stop/890083/gtfs/,0,
890084,890084,Angus Ave,,-19.287262,146.750798,,http://translink.com.au/stop/890084/gtfs/,0,
890085,890085,Heatley Secondary College,,-19.287243,146.754728,,http://translink.com.au/stop/890085/gtfs/,0,
890086,890086,St James Village,,-19.288159,146.760204,,http://translink.com.au/stop/890086/gtfs/,0,
890087,890087,Vincent Village,,-19.287936,146.76208,,http://translink.com.au/stop/890087/gtfs/,0,
890088,890088,Vincent State School,,-19.288428,146.764507,,http://translink.com.au/stop/890088/gtfs/,0,
890089,890089,Anne St,,-19.28935,146.766102,,http://translink.com.au/stop/890089/gtfs/,0,
890090,890090,Anne St,,-19.29719,146.767164,,http://translink.com.au/stop/890090/gtfs/,0,
890091,890091,Stockland Aitkenvale (Ross River Rd),,-19.298222,146.762857,,http://translink.com.au/stop/890091/gtfs/,0,
890092,890092,The Townsville Hospital,,-19.319625,146.761777,,http://translink.com.au/stop/890092/gtfs/,0,
890093,890093,The Townsville Hospital,,-19.319525,146.761525,,http://translink.com.au/stop/890093/gtfs/,0,
890099,890099,James Cook University (Douglas Campus),,-19.327745,146.755898,,http://translink.com.au/stop/890099/gtfs/,0,
890100,890100,George Roberts Hall,,-19.324388,146.750767,,http://translink.com.au/stop/890100/gtfs/,0,
890101,890101,Tennant St,,-19.314976,146.761233,,http://translink.com.au/stop/890101/gtfs/,0,
890102,890102,Leopold St,,-19.30429,146.760679,,http://translink.com.au/stop/890102/gtfs/,0,
890103,890103,Lonsdale St,,-19.289262,146.767537,,http://translink.com.au/stop/890103/gtfs/,0,
890104,890104,Swanson St,,-19.288481,146.77058,,http://translink.com.au/stop/890104/gtfs/,0,
890105,890105,Sheffield St,,-19.28612,146.771141,,http://translink.com.au/stop/890105/gtfs/,0,
890106,890106,McDonald St,,-19.283955,146.771385,,http://translink.com.au/stop/890106/gtfs/,0,
890107,890107,Tippett St,,-19.281927,146.771618,,http://translink.com.au/stop/890107/gtfs/,0,
890108,890108,Goodwin St,,-19.278884,146.772008,,http://translink.com.au/stop/890108/gtfs/,0,
890109,890109,Maroong St,,-19.276908,146.772328,,http://translink.com.au/stop/890109/gtfs/,0,
890110,890110,Lonerganne St,,-19.262323,146.774864,,http://translink.com.au/stop/890110/gtfs/,0,
890111,890111,Clarke St,,-19.260955,146.775027,,http://translink.com.au/stop/890111/gtfs/,0,
890112,890112,Dearness St,,-19.259237,146.775245,,http://translink.com.au/stop/890112/gtfs/,0,
890113,890113,Halifax St,,-19.257534,146.775461,,http://translink.com.au/stop/890113/gtfs/,0,
890114,890114,Lockheed St,,-19.257031,146.776789,,http://translink.com.au/stop/890114/gtfs/,0,
890115,890115,Peel / Lockheed,,-19.257674,146.778107,,http://translink.com.au/stop/890115/gtfs/,0,
890116,890116,Lancaster St,,-19.2588,146.777773,,http://translink.com.au/stop/890116/gtfs/,0,
890119,890119,Peel St,,-19.263282,146.777767,,http://translink.com.au/stop/890119/gtfs/,0,
890120,890120,Ramsay St,,-19.263439,146.779295,,http://translink.com.au/stop/890120/gtfs/,0,
890121,890121,Lonerganne Street,,-19.263634,146.781022,,http://translink.com.au/stop/890121/gtfs/,0,
890122,890122,Douglas St,,-19.264644,146.781747,,http://translink.com.au/stop/890122/gtfs/,0,
890124,890124, Ralston Street,,-19.261868,146.785804,,http://translink.com.au/stop/890124/gtfs/,0,
890125,890125,Marshall St,,-19.244295,146.79812,,http://translink.com.au/stop/890125/gtfs/,0,
890126,890126,Rowes Bay Caravan Park,,-19.241384,146.791224,,http://translink.com.au/stop/890126/gtfs/,0,
890127,890127,Rowes Bay,,-19.23951,146.789062,,http://translink.com.au/stop/890127/gtfs/,0,
890128,890128,RSL Villas,,-19.23508,146.785698,,http://translink.com.au/stop/890128/gtfs/,0,
890129,890129,Garden Settlement,,-19.216911,146.776452,,http://translink.com.au/stop/890129/gtfs/,0,
890130,890130,Seaward St,,-19.206233,146.774603,,http://translink.com.au/stop/890130/gtfs/,0,
890131,890131,Morrell St,,-19.202834,146.771676,,http://translink.com.au/stop/890131/gtfs/,0,
890132,890132,Wackett St,,-19.200427,146.771096,,http://translink.com.au/stop/890132/gtfs/,0,
890133,890133,Ralston St,,-19.261416,146.786179,,http://translink.com.au/stop/890133/gtfs/,0,
890134,890134,Douglas St,,-19.264294,146.781618,,http://translink.com.au/stop/890134/gtfs/,0,
890135,890135,Lonerganne Street,,-19.263757,146.78135,,http://translink.com.au/stop/890135/gtfs/,0,
890136,890136,Ramsay St,,-19.263556,146.779333,,http://translink.com.au/stop/890136/gtfs/,0,
890137,890137,Peel St,,-19.263367,146.777615,,http://translink.com.au/stop/890137/gtfs/,0,
890140,890140,Lancaster St,,-19.258707,146.777709,,http://translink.com.au/stop/890140/gtfs/,0,
890141,890141,Peel / Lockheed,,-19.257656,146.778015,,http://translink.com.au/stop/890141/gtfs/,0,
890142,890142,Lockheed St,,-19.257073,146.776779,,http://translink.com.au/stop/890142/gtfs/,0,
890143,890143,Halifax St,,-19.257415,146.775573,,http://translink.com.au/stop/890143/gtfs/,0,
890144,890144,Dearness St,,-19.259393,146.775335,,http://translink.com.au/stop/890144/gtfs/,0,
890145,890145,Clarke St,,-19.261036,146.775153,,http://translink.com.au/stop/890145/gtfs/,0,
890146,890146,Lonerganne St,,-19.263412,146.774873,,http://translink.com.au/stop/890146/gtfs/,0,
890147,890147,Garbutt Shopping Centre (Ingham Rd),,-19.266122,146.782455,,http://translink.com.au/stop/890147/gtfs/,0,
890148,890148,Tippett St,,-19.281915,146.771771,,http://translink.com.au/stop/890148/gtfs/,0,
890149,890149,Tyrrell St,,-19.287341,146.771409,,http://translink.com.au/stop/890149/gtfs/,0,
890150,890150,Lonsdale St,,-19.289018,146.769099,,http://translink.com.au/stop/890150/gtfs/,0,
890151,890151,Anne St,,-19.289496,146.767422,,http://translink.com.au/stop/890151/gtfs/,0,
890152,890152,Alfred St,,-19.301091,146.761348,,http://translink.com.au/stop/890152/gtfs/,0,
890153,890153,Leopold St,,-19.304479,146.760961,,http://translink.com.au/stop/890153/gtfs/,0,
890154,890154,Good Shepherd Hospice,,-19.310787,146.762894,,,0,
890155,890155,Tennant St,,-19.314958,146.761714,,http://translink.com.au/stop/890155/gtfs/,0,
890156,890156,Riverside Bvd,,-19.317197,146.759802,,http://translink.com.au/stop/890156/gtfs/,0,
890157,890157,Western Campus,,-19.325204,146.751884,,http://translink.com.au/stop/890157/gtfs/,0,
890158,890158,James Cook University (Douglas Campus),,-19.327638,146.756206,,http://translink.com.au/stop/890158/gtfs/,0,
890159,890159,Rotary International House,,-19.332042,146.755827,,http://translink.com.au/stop/890159/gtfs/,0,
890160,890160,Engineering,,-19.331364,146.759505,,http://translink.com.au/stop/890160/gtfs/,0,
890161,890161,Tropical Science,,-19.329944,146.760256,,http://translink.com.au/stop/890161/gtfs/,0,
890162,890162,Medicine,,-19.326488,146.760554,,http://translink.com.au/stop/890162/gtfs/,0,
890163,890163,Nursing,,-19.324942,146.761168,,http://translink.com.au/stop/890163/gtfs/,0,
890164,890164,Riverside Shopping Centre,,-19.317137,146.75822,,http://translink.com.au/stop/890164/gtfs/,0,
890165,890165,Regatta Cr,,-19.316838,146.755732,,http://translink.com.au/stop/890165/gtfs/,0,
890166,890166,Riverside Community Centre,,-19.31661,146.752956,,http://translink.com.au/stop/890166/gtfs/,0,
890167,890167,Southern Cross Cct,,-19.319624,146.751252,,http://translink.com.au/stop/890167/gtfs/,0,
890168,890168,Creekwood Way,,-19.32083,146.74886,,http://translink.com.au/stop/890168/gtfs/,0,
890169,890169,Siris Pl,,-19.31979,146.746954,,http://translink.com.au/stop/890169/gtfs/,0,
890170,890170,White Beach Ct,,-19.318945,146.743197,,http://translink.com.au/stop/890170/gtfs/,0,
890171,890171,Freshwater Dr,,-19.318847,146.738405,,http://translink.com.au/stop/890171/gtfs/,0,
890172,890172,Freshwater Dr,,-19.318861,146.738274,,http://translink.com.au/stop/890172/gtfs/,0,
890173,890173,Rivergreen Ct,,-19.317753,146.741499,,http://translink.com.au/stop/890173/gtfs/,0,
890174,890174,White Beach Ct,,-19.318994,146.743679,,http://translink.com.au/stop/890174/gtfs/,0,
890175,890175,Siris Pl,,-19.319565,146.746887,,http://translink.com.au/stop/890175/gtfs/,0,
890176,890176,Creekwood Way,,-19.320741,146.748945,,http://translink.com.au/stop/890176/gtfs/,0,
890177,890177,Southern Cross Cct,,-19.318365,146.751519,,http://translink.com.au/stop/890177/gtfs/,0,
890178,890178,Riverside Community Centre,,-19.316519,146.75287,,http://translink.com.au/stop/890178/gtfs/,0,
890179,890179,Regatta Cr,,-19.316749,146.75566,,http://translink.com.au/stop/890179/gtfs/,0,
890180,890180,Riverside Shopping Centre,,-19.316971,146.758312,,http://translink.com.au/stop/890180/gtfs/,0,
890181,890181,Willows Shopping Centre,,-19.314439,146.72767,,http://translink.com.au/stop/890181/gtfs/,0,
890182,890182,Paluma St,,-19.312322,146.729715,,http://translink.com.au/stop/890182/gtfs/,0,
890183,890183,Kirwan State High School (Thuringowa Dr),,-19.30851,146.73216,,http://translink.com.au/stop/890183/gtfs/,0,
890184,890184,Thuringowa / Charles,,-19.304778,146.734158,,http://translink.com.au/stop/890184/gtfs/,0,
890185,890185,Burramugga Cres,,-19.298845,146.736106,,http://translink.com.au/stop/890185/gtfs/,0,
890186,890186,Garbutt Shopping Centre (Hugh St),,-19.265699,146.783202,,http://translink.com.au/stop/890186/gtfs/,0,
890187,890187,Cape Pallarenda,,-19.199947,146.77368,,http://translink.com.au/stop/890187/gtfs/,0,
890188,890188,Rowes Bay Caravan Park,,-19.241218,146.791177,,http://translink.com.au/stop/890188/gtfs/,0,
890189,890189,Marshall St,,-19.244181,146.798036,,http://translink.com.au/stop/890189/gtfs/,0,
890190,890190,Primrose / Rose,,-19.24358,146.801289,,http://translink.com.au/stop/890190/gtfs/,0,
890191,890191,Primrose / Rose,,-19.243724,146.8013,,http://translink.com.au/stop/890191/gtfs/,0,
890192,890192,Stuart St,,-19.246471,146.808188,,http://translink.com.au/stop/890192/gtfs/,0,
890193,890193,Flinders St East,,-19.257923,146.818702,,http://translink.com.au/stop/890193/gtfs/,0,
890194,890194,Wickham St,,-19.257091,146.821291,,http://translink.com.au/stop/890194/gtfs/,0,
890195,890195,The strand app Fryer Street,,-19.253067,146.81846,,http://translink.com.au/stop/890195/gtfs/,0,
890196,890196,Strand / Gregory,,-19.25073,146.815596,,http://translink.com.au/stop/890196/gtfs/,0,
890203,890203,Strand / Gregory,,-19.250199,146.815375,,http://translink.com.au/stop/890203/gtfs/,0,
890204,890204,Centenary Fountain,,-19.255722,146.822873,,http://translink.com.au/stop/890204/gtfs/,0,
890206,890206,Ferry Terminal,,-19.254961,146.825361,,http://translink.com.au/stop/890206/gtfs/,0,
890207,890207,Reef HQ,,-19.257292,146.822705,,http://translink.com.au/stop/890207/gtfs/,0,
890208,890208,Flinders St East,,-19.257887,146.819218,,http://translink.com.au/stop/890208/gtfs/,0,
890209,890209,Dean St,,-19.260971,146.819463,,http://translink.com.au/stop/890209/gtfs/,0,
890215,890215,Palmer St,,-19.260281,146.820784,,http://translink.com.au/stop/890215/gtfs/,0,
890217,890217,Walker St,,-19.259164,146.814316,,http://translink.com.au/stop/890217/gtfs/,0,
890218,890218,Flinders St West,,-19.262004,146.815104,,http://translink.com.au/stop/890218/gtfs/,0,
890219,890219,Blackwood St,,-19.263283,146.814005,,http://translink.com.au/stop/890219/gtfs/,0,
890220,890220,Fletcher St,,-19.266277,146.810865,,http://translink.com.au/stop/890220/gtfs/,0,
890221,890221,Knapp St,,-19.267649,146.808598,,http://translink.com.au/stop/890221/gtfs/,0,
890222,890222,Pridmore St,,-19.268391,146.800969,,http://translink.com.au/stop/890222/gtfs/,0,
890223,890223,Echlin St (West End),,-19.26779,146.79539,,http://translink.com.au/stop/890223/gtfs/,0,
890224,890224,Park St,,-19.2817,146.789439,,http://translink.com.au/stop/890224/gtfs/,0,
890225,890225,Gladstone St,,-19.283166,146.789019,,http://translink.com.au/stop/890225/gtfs/,0,
890226,890226,Derby St,,-19.285226,146.788779,,http://translink.com.au/stop/890226/gtfs/,0,
890227,890227,Albury St,,-19.287227,146.788551,,http://translink.com.au/stop/890227/gtfs/,0,
890228,890228,Mater Hospital,,-19.289024,146.788337,,http://translink.com.au/stop/890228/gtfs/,0,
890229,890229,Diprose St,,-19.28934,146.786312,,http://translink.com.au/stop/890229/gtfs/,0,
890230,890230,Pimlico State High School,,-19.289099,146.784022,,http://translink.com.au/stop/890230/gtfs/,0,
890231,890231,Barrier Reef Institute of TAFE,,-19.28875,146.780505,,http://translink.com.au/stop/890231/gtfs/,0,
890232,890232,Armit St,,-19.288448,146.777587,,http://translink.com.au/stop/890232/gtfs/,0,
890233,890233,Pearson St,,-19.288165,146.774864,,http://translink.com.au/stop/890233/gtfs/,0,
890235,890235,Raynor St,,-19.295696,146.761582,,http://translink.com.au/stop/890235/gtfs/,0,
890236,890236,Arunta St,,-19.293358,146.761851,,http://translink.com.au/stop/890236/gtfs/,0,
890237,890237,Illoura St,,-19.292847,146.761255,,http://translink.com.au/stop/890237/gtfs/,0,
890238,890238,Brampton Ave,,-19.293432,146.75866,,http://translink.com.au/stop/890238/gtfs/,0,
890239,890239,Lindeman Ave,,-19.294159,146.75558,,http://translink.com.au/stop/890239/gtfs/,0,
890240,890240,Cordelia Ave,,-19.295028,146.75366,,http://translink.com.au/stop/890240/gtfs/,0,
890241,890241,Fitzroy St,,-19.296057,146.752116,,http://translink.com.au/stop/890241/gtfs/,0,
890242,890242,Western Lions Park,,-19.297114,146.750534,,http://translink.com.au/stop/890242/gtfs/,0,
890243,890243,Ellimatta Ave,,-19.298994,146.749219,,http://translink.com.au/stop/890243/gtfs/,0,
890244,890244,Lerida St,,-19.301531,146.747688,,http://translink.com.au/stop/890244/gtfs/,0,
890245,890245,Tapiolas Ave,,-19.303776,146.746341,,http://translink.com.au/stop/890245/gtfs/,0,
890246,890246,Sabadell St,,-19.304895,146.74442,,http://translink.com.au/stop/890246/gtfs/,0,
890247,890247,Saderra Ct,,-19.304693,146.74215,,http://translink.com.au/stop/890247/gtfs/,0,
890248,890248,Parkside Plaza,,-19.303834,146.740742,,http://translink.com.au/stop/890248/gtfs/,0,
890249,890249,Catalonia St,,-19.301191,146.741009,,http://translink.com.au/stop/890249/gtfs/,0,
890250,890250,McBride St,,-19.295453,146.742827,,http://translink.com.au/stop/890250/gtfs/,0,
890251,890251,Mount View Park,,-19.293696,146.741505,,http://translink.com.au/stop/890251/gtfs/,0,
890252,890252,Castlemaine St,,-19.300317,146.736104,,http://translink.com.au/stop/890252/gtfs/,0,
890253,890253,Thuringowa / Charles,,-19.305399,146.734143,,http://translink.com.au/stop/890253/gtfs/,0,
890254,890254,Thuringowa State High (Thuringowa Dr),,-19.308583,146.732363,,http://translink.com.au/stop/890254/gtfs/,0,
890255,890255,Ridley St,,-19.311879,146.730168,,http://translink.com.au/stop/890255/gtfs/,0,
890256,890256,Kirwan (Golf Links Dr),,-19.318278,146.709114,,http://translink.com.au/stop/890256/gtfs/,0,
890257,890257,Gardenia Ave,,-19.30787,146.71358,,http://translink.com.au/stop/890257/gtfs/,0,
890258,890258,Golf Links / Sandstone,,-19.305349,146.717446,,http://translink.com.au/stop/890258/gtfs/,0,
890259,890259,Thuringowa / Mill,,-19.293332,146.737734,,http://translink.com.au/stop/890259/gtfs/,0,
890260,890260,McBride St,,-19.295485,146.743088,,http://translink.com.au/stop/890260/gtfs/,0,
890261,890261,Luxton St,,-19.297591,146.741999,,http://translink.com.au/stop/890261/gtfs/,0,
890262,890262,Catalonia St,,-19.300987,146.741306,,http://translink.com.au/stop/890262/gtfs/,0,
890263,890263,Parkside Plaza,,-19.303471,146.741051,,http://translink.com.au/stop/890263/gtfs/,0,
890264,890264,Saderra Ct,,-19.304568,146.741884,,http://translink.com.au/stop/890264/gtfs/,0,
890265,890265,Sabadell St,,-19.304781,146.744207,,http://translink.com.au/stop/890265/gtfs/,0,
890266,890266,Tapiolas Ave,,-19.303706,146.746277,,http://translink.com.au/stop/890266/gtfs/,0,
890267,890267,Lerida St,,-19.301773,146.747434,,http://translink.com.au/stop/890267/gtfs/,0,
890268,890268,Ellimatta Ave,,-19.29895,146.74913,,http://translink.com.au/stop/890268/gtfs/,0,
890269,890269,Western Lions Park,,-19.296812,146.750812,,http://translink.com.au/stop/890269/gtfs/,0,
890270,890270,Fitzroy St,,-19.295859,146.75225,,http://translink.com.au/stop/890270/gtfs/,0,
890271,890271,Cordelia Ave,,-19.29451,146.754278,,http://translink.com.au/stop/890271/gtfs/,0,
890272,890272,Lindeman Ave,,-19.293866,146.75645,,http://translink.com.au/stop/890272/gtfs/,0,
890273,890273,Brampton Ave,,-19.293104,146.759721,,http://translink.com.au/stop/890273/gtfs/,0,
890275,890275,Pearson St,,-19.288047,146.7755,,http://translink.com.au/stop/890275/gtfs/,0,
890276,890276,Armit St,,-19.288227,146.777238,,http://translink.com.au/stop/890276/gtfs/,0,
890277,890277,Barrier Reef Institute of TAFE,,-19.288577,146.780694,,http://translink.com.au/stop/890277/gtfs/,0,
890278,890278,Pimlico State High School,,-19.28876,146.782446,,http://translink.com.au/stop/890278/gtfs/,0,
890279,890279,Mater Hospital,,-19.289145,146.788249,,http://translink.com.au/stop/890279/gtfs/,0,
890280,890280,Derby St,,-19.284893,146.788716,,http://translink.com.au/stop/890280/gtfs/,0,
890281,890281,Echlin St (West End),,-19.26778,146.796412,,http://translink.com.au/stop/890281/gtfs/,0,
890282,890282,Pridmore St,,-19.268242,146.800732,,http://translink.com.au/stop/890282/gtfs/,0,
890283,890283,Walker St,,-19.259256,146.814015,,http://translink.com.au/stop/890283/gtfs/,0,
890285,890285,Railway Ave,,-19.272461,146.815459,,http://translink.com.au/stop/890285/gtfs/,0,
890286,890286,Queens Rd (Railway Crossing),,-19.278126,146.814763,,http://translink.com.au/stop/890286/gtfs/,0,
890287,890287,First Ave,,-19.278517,146.812755,,http://translink.com.au/stop/890287/gtfs/,0,
890288,890288,Ahearne St,,-19.280837,146.807898,,http://translink.com.au/stop/890288/gtfs/,0,
890289,890289,Bicentennial Park,,-19.282907,146.805439,,http://translink.com.au/stop/890289/gtfs/,0,
890290,890290,Clayton St,,-19.285145,146.802861,,http://translink.com.au/stop/890290/gtfs/,0,
890291,890291,Halloran St,,-19.289234,146.798084,,http://translink.com.au/stop/890291/gtfs/,0,
890292,890292,Rising Sun,,-19.291955,146.795126,,http://translink.com.au/stop/890292/gtfs/,0,
890293,890293,Sweet St,,-19.295512,146.797241,,http://translink.com.au/stop/890293/gtfs/,0,
890294,890294,Benson St,,-19.297386,146.798327,,http://translink.com.au/stop/890294/gtfs/,0,
890295,890295,Touch St,,-19.300479,146.800103,,http://translink.com.au/stop/890295/gtfs/,0,
890296,890296,Viles St,,-19.302558,146.801298,,http://translink.com.au/stop/890296/gtfs/,0,
890297,890297,Stuart / Watt (Wulguru),,-19.31853,146.814148,,http://translink.com.au/stop/890297/gtfs/,0,
890298,890298,Marconi St,,-19.323575,146.818462,,http://translink.com.au/stop/890298/gtfs/,0,
890299,890299,Royal St,,-19.326667,146.821139,,http://translink.com.au/stop/890299/gtfs/,0,
890300,890300,Culgoa St,,-19.328529,146.822747,,http://translink.com.au/stop/890300/gtfs/,0,
890301,890301,Diamantina St,,-19.331386,146.825187,,http://translink.com.au/stop/890301/gtfs/,0,
890302,890302,Dunk St,,-19.334108,146.82762,,http://translink.com.au/stop/890302/gtfs/,0,
890303,890303,Stuart,,-19.341036,146.832838,,http://translink.com.au/stop/890303/gtfs/,0,
890304,890304,Roe St,,-19.344441,146.834223,,http://translink.com.au/stop/890304/gtfs/,0,
890305,890305,Gully St,,-19.3462,146.83481,,http://translink.com.au/stop/890305/gtfs/,0,
890306,890306,Southwood Rd (Stuart),,-19.347515,146.850281,,http://translink.com.au/stop/890306/gtfs/,0,
890307,890307,Pretoria St,,-19.347336,146.847261,,http://translink.com.au/stop/890307/gtfs/,0,
890308,890308,Mafeking St,,-19.346846,146.842419,,http://translink.com.au/stop/890308/gtfs/,0,
890309,890309,Gully St,,-19.346263,146.834709,,http://translink.com.au/stop/890309/gtfs/,0,
890310,890310,Roe St,,-19.344553,146.834122,,http://translink.com.au/stop/890310/gtfs/,0,
890311,890311,Stuart,,-19.341024,146.832702,,http://translink.com.au/stop/890311/gtfs/,0,
890312,890312,Diamantina St,,-19.331096,146.824596,,http://translink.com.au/stop/890312/gtfs/,0,
890313,890313,Culgoa St,,-19.328211,146.822152,,http://translink.com.au/stop/890313/gtfs/,0,
890314,890314,Royal St,,-19.326654,146.820824,,http://translink.com.au/stop/890314/gtfs/,0,
890315,890315,Wright St,,-19.325168,146.819118,,http://translink.com.au/stop/890315/gtfs/,0,
890317,890317,Townsville Grammar,,-19.316737,146.792616,,http://translink.com.au/stop/890317/gtfs/,0,
890318,890318,Annandale Shopping Centre,,-19.316581,146.791153,,http://translink.com.au/stop/890318/gtfs/,0,
890319,890319,Wave Hill Dr,,-19.314577,146.790342,,http://translink.com.au/stop/890319/gtfs/,0,
890320,890320,Indigo Cr,,-19.311228,146.783884,,http://translink.com.au/stop/890320/gtfs/,0,
890321,890321,Boronia Dr,,-19.308366,146.78347,,http://translink.com.au/stop/890321/gtfs/,0,
890322,890322,Annandale Dr,,-19.307736,146.782541,,http://translink.com.au/stop/890322/gtfs/,0,
890323,890323,Jonquil Cr,,-19.30977,146.779894,,http://translink.com.au/stop/890323/gtfs/,0,
890324,890324,Larkspur Cr,,-19.311655,146.778271,,http://translink.com.au/stop/890324/gtfs/,0,
890325,890325,River Park Dr,,-19.313177,146.776204,,http://translink.com.au/stop/890325/gtfs/,0,
890326,890326,Cypress Dr,,-19.314231,146.774721,,http://translink.com.au/stop/890326/gtfs/,0,
890327,890327,Yolanda Dr Shops,,-19.314289,146.771748,,http://translink.com.au/stop/890327/gtfs/,0,
890328,890328,Fardon St,,-19.314921,146.768378,,http://translink.com.au/stop/890328/gtfs/,0,
890329,890329,Marabou Dr,,-19.316132,146.765945,,http://translink.com.au/stop/890329/gtfs/,0,
890330,890330,Ronan St,,-19.286421,146.763983,,http://translink.com.au/stop/890330/gtfs/,0,
890331,890331,Palmerston / Cambridge,,-19.279556,146.769362,,http://translink.com.au/stop/890331/gtfs/,0,
890332,890332,McDougall St,,-19.280594,146.779479,,http://translink.com.au/stop/890332/gtfs/,0,
890333,890333,Gill Park,,-19.281043,146.783847,,http://translink.com.au/stop/890333/gtfs/,0,
890334,890334,Pegnall St,,-19.281438,146.78772,,http://translink.com.au/stop/890334/gtfs/,0,
890335,890335,Fairley Street,,-19.276735,146.794481,,http://translink.com.au/stop/890335/gtfs/,0,
890336,890336,Sussex Street,,-19.276976,146.796909,,http://translink.com.au/stop/890336/gtfs/,0,
890337,890337,Mater Womens and Childrens Hospital,,-19.277224,146.799356,,http://translink.com.au/stop/890337/gtfs/,0,
890338,890338,Oxford St,,-19.276185,146.800597,,http://translink.com.au/stop/890338/gtfs/,0,
890339,890339,Somer St,,-19.274439,146.801971,,http://translink.com.au/stop/890339/gtfs/,0,
890340,890340,Yeatman St,,-19.273048,146.803411,,http://translink.com.au/stop/890340/gtfs/,0,
890341,890341,Townsville Station,,-19.268543,146.806715,,http://translink.com.au/stop/890341/gtfs/,0,
890342,890342,Knapp St,,-19.267456,146.808524,,http://translink.com.au/stop/890342/gtfs/,0,
890343,890343,Fletcher St,,-19.266422,146.81025,,http://translink.com.au/stop/890343/gtfs/,0,
890344,890344,Blackwood St,,-19.263382,146.813689,,http://translink.com.au/stop/890344/gtfs/,0,
890345,890345,Townsville City,,-19.26089,146.814795,,http://translink.com.au/stop/890345/gtfs/,0,
890346,890346,Townsville Station,,-19.268707,146.806843,,http://translink.com.au/stop/890346/gtfs/,0,
890347,890347,Yeatman St,,-19.273032,146.803842,,http://translink.com.au/stop/890347/gtfs/,0,
890348,890348,Somer St,,-19.275133,146.801667,,http://translink.com.au/stop/890348/gtfs/,0,
890349,890349,Mater Womens and Childrens Hospital,,-19.27732,146.798815,,http://translink.com.au/stop/890349/gtfs/,0,
890350,890350,Sussex St,,-19.277005,146.795743,,http://translink.com.au/stop/890350/gtfs/,0,
890351,890351,Gill Park,,-19.281194,146.784427,,http://translink.com.au/stop/890351/gtfs/,0,
890352,890352,McDougall St,,-19.280633,146.77895,,http://translink.com.au/stop/890352/gtfs/,0,
890354,890354,Palmerston / Cambridge,,-19.279743,146.768369,,http://translink.com.au/stop/890354/gtfs/,0,
890355,890355,Ronan St,,-19.286442,146.764209,,http://translink.com.au/stop/890355/gtfs/,0,
890356,890356,Marabou Dr,,-19.316218,146.765483,,http://translink.com.au/stop/890356/gtfs/,0,
890357,890357,Fardon St,,-19.314591,146.768849,,http://translink.com.au/stop/890357/gtfs/,0,
890358,890358,Yolanda Dr Shops,,-19.314187,146.771781,,http://translink.com.au/stop/890358/gtfs/,0,
890359,890359,Cypress Dr,,-19.314115,146.774643,,http://translink.com.au/stop/890359/gtfs/,0,
890360,890360,River Park Dr,,-19.312952,146.776982,,http://translink.com.au/stop/890360/gtfs/,0,
890361,890361,Larkspur Cr,,-19.311022,146.778526,,http://translink.com.au/stop/890361/gtfs/,0,
890362,890362,Jonquil Cr,,-19.30938,146.780166,,http://translink.com.au/stop/890362/gtfs/,0,
890363,890363,Annandale Dr,,-19.307793,146.782108,,http://translink.com.au/stop/890363/gtfs/,0,
890364,890364,Boronia Dr,,-19.308479,146.7836,,http://translink.com.au/stop/890364/gtfs/,0,
890365,890365,South Townsville State Sch,,-19.264023,146.826551,,http://translink.com.au/stop/890365/gtfs/,0,
890366,890366,Nelson St,,-19.265527,146.829949,,http://translink.com.au/stop/890366/gtfs/,0,
890367,890367,Hubert St,,-19.268225,146.829399,,http://translink.com.au/stop/890367/gtfs/,0,
890368,890368,Bell St,,-19.26913,146.826359,,http://translink.com.au/stop/890368/gtfs/,0,
890369,890369,Twelfth Ave,,-19.270321,146.820542,,http://translink.com.au/stop/890369/gtfs/,0,
890370,890370,Tenth Ave,,-19.270852,146.817784,,http://translink.com.au/stop/890370/gtfs/,0,
890372,890372,Tenth Ave,,-19.277855,146.818141,,http://translink.com.au/stop/890372/gtfs/,0,
890376,890376,Shannon St (Oonoonba Park),,-19.294103,146.817065,,http://translink.com.au/stop/890376/gtfs/,0,
890378,890378,McAlister St,,-19.298122,146.820198,,http://translink.com.au/stop/890378/gtfs/,0,
890379,890379,McPherson St,,-19.304186,146.82028,,http://translink.com.au/stop/890379/gtfs/,0,
890381,890381,Stephenson St,,-19.327027,146.808728,,http://translink.com.au/stop/890381/gtfs/,0,
890382,890382,Florey St,,-19.328055,146.808583,,http://translink.com.au/stop/890382/gtfs/,0,
890383,890383,Kepler St,,-19.328417,146.8112,,http://translink.com.au/stop/890383/gtfs/,0,
890384,890384,Haldane St,,-19.327626,146.813944,,http://translink.com.au/stop/890384/gtfs/,0,
890385,890385,Faraday St,,-19.327399,146.816101,,http://translink.com.au/stop/890385/gtfs/,0,
890386,890386,Wright St,,-19.325048,146.819166,,http://translink.com.au/stop/890386/gtfs/,0,
890387,890387,Marconi St,,-19.32378,146.8183,,http://translink.com.au/stop/890387/gtfs/,0,
890388,890388,Edison St,,-19.320732,146.815804,,http://translink.com.au/stop/890388/gtfs/,0,
890389,890389,Stuart / Watt (Wulguru),,-19.318965,146.814264,,http://translink.com.au/stop/890389/gtfs/,0,
890391,890391,Townsville Grammar,,-19.316709,146.79275,,http://translink.com.au/stop/890391/gtfs/,0,
890392,890392,Heatley State School,,-19.293354,146.748318,,http://translink.com.au/stop/890392/gtfs/,0,
890393,890393,Joyce St,,-19.293849,146.744357,,http://translink.com.au/stop/890393/gtfs/,0,
890394,890394,Cavill Ave,,-19.289688,146.736677,,http://translink.com.au/stop/890394/gtfs/,0,
890395,890395,Wheeler Cct,,-19.295418,146.734032,,http://translink.com.au/stop/890395/gtfs/,0,
890396,890396,Tottenham Ct,,-19.300574,146.72787,,http://translink.com.au/stop/890396/gtfs/,0,
890397,890397,Sandstone Dr,,-19.30878,146.723427,,http://translink.com.au/stop/890397/gtfs/,0,
890398,890398,Morindo Dr,,-19.312254,146.722858,,http://translink.com.au/stop/890398/gtfs/,0,
890399,890399,Morindo Dr,,-19.312424,146.722735,,http://translink.com.au/stop/890399/gtfs/,0,
890400,890400,Tottenham Ct,,-19.300045,146.72841,,http://translink.com.au/stop/890400/gtfs/,0,
890401,890401,Cavill Ave,,-19.289787,146.738897,,http://translink.com.au/stop/890401/gtfs/,0,
890402,890402,Joyce St,,-19.293712,146.744452,,http://translink.com.au/stop/890402/gtfs/,0,
890403,890403,Indigo Cr,,-19.311638,146.784028,,http://translink.com.au/stop/890403/gtfs/,0,
890404,890404,Wave Hill Dr,,-19.314463,146.790327,,http://translink.com.au/stop/890404/gtfs/,0,
890405,890405,Murray Sporting Complex,,-19.312981,146.801049,,http://translink.com.au/stop/890405/gtfs/,0,
890406,890406,Oonoonba Rd,,-19.302804,146.813816,,http://translink.com.au/stop/890406/gtfs/,0,
890407,890407,McPherson St,,-19.304098,146.820175,,http://translink.com.au/stop/890407/gtfs/,0,
890408,890408,Shannon St (Oonoonba Park),,-19.294145,146.817088,,http://translink.com.au/stop/890408/gtfs/,0,
890412,890412,Tenth Ave,,-19.277929,146.818097,,http://translink.com.au/stop/890412/gtfs/,0,
890414,890414,Twelfth Ave,,-19.27011,146.820464,,http://translink.com.au/stop/890414/gtfs/,0,
890415,890415,Bell St,,-19.268911,146.826656,,http://translink.com.au/stop/890415/gtfs/,0,
890416,890416,Hubert St,,-19.267979,146.829323,,http://translink.com.au/stop/890416/gtfs/,0,
890417,890417,Nelson St,,-19.265201,146.829036,,http://translink.com.au/stop/890417/gtfs/,0,
890418,890418,South Townsville State Sch,,-19.263636,146.825578,,http://translink.com.au/stop/890418/gtfs/,0,
890419,890419,Davidson St,,-19.26265,146.823448,,http://translink.com.au/stop/890419/gtfs/,0,
890420,890420,Kokoda St (Murray Sporting Complex),,-19.306824,146.803398,,http://translink.com.au/stop/890420/gtfs/,0,
890421,890421,Viles St,,-19.301849,146.800593,,http://translink.com.au/stop/890421/gtfs/,0,
890422,890422,Touch St,,-19.300544,146.799855,,http://translink.com.au/stop/890422/gtfs/,0,
890423,890423,Benson St,,-19.297516,146.798104,,http://translink.com.au/stop/890423/gtfs/,0,
890424,890424,Sweet St,,-19.295968,146.797209,,http://translink.com.au/stop/890424/gtfs/,0,
890425,890425,Bowen Rd,,-19.292661,146.795935,,http://translink.com.au/stop/890425/gtfs/,0,
890426,890426,Halloran St,,-19.289103,146.797996,,http://translink.com.au/stop/890426/gtfs/,0,
890427,890427,Clayton St,,-19.284984,146.802831,,http://translink.com.au/stop/890427/gtfs/,0,
890428,890428,Ahearne St,,-19.281308,146.807146,,http://translink.com.au/stop/890428/gtfs/,0,
890429,890429,First Ave,,-19.278429,146.812482,,http://translink.com.au/stop/890429/gtfs/,0,
890430,890430,Queens Rd (Railway Crossing),,-19.277937,146.815101,,http://translink.com.au/stop/890430/gtfs/,0,
890431,890431,Hermit Park,,-19.277663,146.800295,,http://translink.com.au/stop/890431/gtfs/,0,
890432,890432,Bayswater Tce,,-19.281439,146.798749,,http://translink.com.au/stop/890432/gtfs/,0,
890433,890433,Soule St,,-19.283807,146.79776,,http://translink.com.au/stop/890433/gtfs/,0,
890434,890434,Townsend St,,-19.286182,146.797211,,http://translink.com.au/stop/890434/gtfs/,0,
890435,890435,Jameson St,,-19.288623,146.796829,,http://translink.com.au/stop/890435/gtfs/,0,
890436,890436,Mabin St,,-19.293669,146.79259,,http://translink.com.au/stop/890436/gtfs/,0,
890437,890437,China St,,-19.294246,146.791174,,http://translink.com.au/stop/890437/gtfs/,0,
890438,890438,Mundingburra State School,,-19.294856,146.789728,,http://translink.com.au/stop/890438/gtfs/,0,
890439,890439,Briarfield St,,-19.295295,146.787019,,http://translink.com.au/stop/890439/gtfs/,0,
890440,890440,Mango Ave,,-19.295276,146.783733,,http://translink.com.au/stop/890440/gtfs/,0,
890441,890441,Ross River Rd / Gulliver St,,-19.29546,146.780743,,http://translink.com.au/stop/890441/gtfs/,0,
890442,890442,Cathedral School,,-19.295989,146.778286,,http://translink.com.au/stop/890442/gtfs/,0,
890443,890443,Crete St,,-19.296768,146.77395,,http://translink.com.au/stop/890443/gtfs/,0,
890444,890444,Charlotte St,,-19.296384,146.770647,,http://translink.com.au/stop/890444/gtfs/,0,
890446,890446,Cranbrae Village,,-19.299001,146.758518,,http://translink.com.au/stop/890446/gtfs/,0,
890447,890447,Ignatius Park College,,-19.300164,146.756139,,http://translink.com.au/stop/890447/gtfs/,0,
890448,890448,Killara St,,-19.303443,146.753251,,http://translink.com.au/stop/890448/gtfs/,0,
890449,890449,Alice St,,-19.307376,146.750903,,http://translink.com.au/stop/890449/gtfs/,0,
890450,890450,Louise St,,-19.310806,146.747268,,http://translink.com.au/stop/890450/gtfs/,0,
890451,890451,Forest Ave,,-19.313328,146.742934,,http://translink.com.au/stop/890451/gtfs/,0,
890452,890452,Malbon Rd,,-19.307402,146.738229,,http://translink.com.au/stop/890452/gtfs/,0,
890453,890453,Kirwan State High School,,-19.309043,146.734256,,http://translink.com.au/stop/890453/gtfs/,0,
890455,890455,High Range Dr,,-19.320277,146.724421,,http://translink.com.au/stop/890455/gtfs/,0,
890456,890456,Sunland Plaza,,-19.319852,146.726905,,http://translink.com.au/stop/890456/gtfs/,0,
890457,890457,Gregory St (Condon),,-19.323444,146.727696,,http://translink.com.au/stop/890457/gtfs/,0,
890458,890458,Gouldian / Lorikeet,,-19.332127,146.724701,,http://translink.com.au/stop/890458/gtfs/,0,
890459,890459,Bellbird St,,-19.332101,146.721171,,http://translink.com.au/stop/890459/gtfs/,0,
890460,890460,Eider Ct,,-19.332049,146.716786,,http://translink.com.au/stop/890460/gtfs/,0,
890461,890461,Carlyle Gardens,,-19.331493,146.714788,,http://translink.com.au/stop/890461/gtfs/,0,
890462,890462,Bellbird St,,-19.331985,146.721077,,http://translink.com.au/stop/890462/gtfs/,0,
890463,890463,Falcon Cr,,-19.334145,146.723312,,http://translink.com.au/stop/890463/gtfs/,0,
890464,890464,Jabiru Park,,-19.334093,146.720309,,http://translink.com.au/stop/890464/gtfs/,0,
890465,890465,Thuringowa State High School,,-19.336627,146.719409,,http://translink.com.au/stop/890465/gtfs/,0,
890466,890466,Gollogly / Vickers,,-19.339794,146.719613,,http://translink.com.au/stop/890466/gtfs/,0,
890467,890467,Mallee St,,-19.340176,146.72386,,http://translink.com.au/stop/890467/gtfs/,0,
890468,890468,Pinnacle Dr,,-19.340344,146.725689,,http://translink.com.au/stop/890468/gtfs/,0,
890469,890469,Dollview Ave,,-19.346573,146.729092,,http://translink.com.au/stop/890469/gtfs/,0,
890470,890470,Santal Dr,,-19.354532,146.732355,,http://translink.com.au/stop/890470/gtfs/,0,
890471,890471,Riverway Dr (Rasmussen),,-19.362899,146.731887,,http://translink.com.au/stop/890471/gtfs/,0,
890472,890472,Riverway / Allambie,,-19.367487,146.731438,,http://translink.com.au/stop/890472/gtfs/,0,
890474,890474,Bassano Way,,-19.37454,146.730305,,http://translink.com.au/stop/890474/gtfs/,0,
890475,890475,Yut Fay Ave,,-19.376552,146.730313,,http://translink.com.au/stop/890475/gtfs/,0,
890476,890476,Hammond Way,,-19.379963,146.730448,,http://translink.com.au/stop/890476/gtfs/,0,
890477,890477,Clint St,,-19.384644,146.730478,,http://translink.com.au/stop/890477/gtfs/,0,
890478,890478,Yvette St,,-19.389067,146.730081,,http://translink.com.au/stop/890478/gtfs/,0,
890479,890479,Dunlop St (Kelso),,-19.393749,146.729381,,http://translink.com.au/stop/890479/gtfs/,0,
890489,890489,Dunlop St (Kelso),,-19.393431,146.729211,,http://translink.com.au/stop/890489/gtfs/,0,
890490,890490,Yvette St,,-19.388293,146.729936,,http://translink.com.au/stop/890490/gtfs/,0,
890491,890491,Jennifer St,,-19.386101,146.730148,,http://translink.com.au/stop/890491/gtfs/,0,
890492,890492,Clint St,,-19.38469,146.730242,,http://translink.com.au/stop/890492/gtfs/,0,
890493,890493,Hammond Way,,-19.379853,146.730264,,http://translink.com.au/stop/890493/gtfs/,0,
890494,890494,Yut Fay Ave,,-19.376889,146.730179,,http://translink.com.au/stop/890494/gtfs/,0,
890495,890495,Bassano Way,,-19.373471,146.730164,,http://translink.com.au/stop/890495/gtfs/,0,
890496,890496,Rosewood Ave,,-19.370862,146.730442,,http://translink.com.au/stop/890496/gtfs/,0,
890497,890497,Riverway / Allambie,,-19.364837,146.731766,,http://translink.com.au/stop/890497/gtfs/,0,
890498,890498,Riverway Dr (Rasmussen),,-19.361925,146.731773,,http://translink.com.au/stop/890498/gtfs/,0,
890547,890547,Coral Coast Tourist Park,,-19.26252,146.748323,,http://translink.com.au/stop/890547/gtfs/,0,
890548,890548,Coconut Glen Van Village,,-19.261787,146.714365,,http://translink.com.au/stop/890548/gtfs/,0,
890549,890549,Innes Estate,,-19.252935,146.687604,,http://translink.com.au/stop/890549/gtfs/,0,
890550,890550,Woodlands Caravan Park,,-19.240359,146.664818,,http://translink.com.au/stop/890550/gtfs/,0,
890551,890551,Mt Low Parkway / Bruce Hwy,,-19.238554,146.664816,,http://translink.com.au/stop/890551/gtfs/,0,
890552,890552,Mt Low Parkway  890552,,-19.228624,146.669927,,http://translink.com.au/stop/890552/gtfs/,0,
890553,890553,Mt Low Parkway 890553,,-19.224104,146.669896,,http://translink.com.au/stop/890553/gtfs/,0,
890554,890554,Mt Low Parkway  890554,,-19.22003,146.669995,,http://translink.com.au/stop/890554/gtfs/,0,
890555,890555,Mt Low Parkway - 890555,,-19.211857,146.670229,,http://translink.com.au/stop/890555/gtfs/,0,
890556,890556,Mt Low Parkway 890556,,-19.209385,146.670296,,http://translink.com.au/stop/890556/gtfs/,0,
890557,890557,Lionel Turner Dr,,-19.202063,146.673281,,http://translink.com.au/stop/890557/gtfs/,0,
890558,890558,Mt Low Parkway,,-19.194513,146.675301,,http://translink.com.au/stop/890558/gtfs/,0,
890559,890559,Weir Court,,-19.189922,146.667687,,http://translink.com.au/stop/890559/gtfs/,0,
890560,890560,Coutts Drive,,-19.189649,146.670464,,http://translink.com.au/stop/890560/gtfs/,0,
890561,890561,Mahogany Court,,-19.192957,146.672694,,http://translink.com.au/stop/890561/gtfs/,0,
890562,890562,Bushland Beach,,-19.191785,146.67708,,http://translink.com.au/stop/890562/gtfs/,0,
890563,890563,Mt Low Parkway,,-19.193834,146.675714,,http://translink.com.au/stop/890563/gtfs/,0,
890564,890564,Balsam St,,-19.195191,146.677574,,http://translink.com.au/stop/890564/gtfs/,0,
890565,890565,Marina Dr,,-19.196683,146.680096,,http://translink.com.au/stop/890565/gtfs/,0,
890566,890566,Mt Low Parkway 890566,,-19.209156,146.670567,,http://translink.com.au/stop/890566/gtfs/,0,
890567,890567,Mt Low Parkway 890567,,-19.213647,146.670442,,http://translink.com.au/stop/890567/gtfs/,0,
890568,890568,Mt Low Parkway  890568,,-19.219937,146.67027,,http://translink.com.au/stop/890568/gtfs/,0,
890569,890569,Mt Low Parkway  890569,,-19.223787,146.670213,,http://translink.com.au/stop/890569/gtfs/,0,
890570,890570,Shoalmarra Dr,,-19.227748,146.670209,,http://translink.com.au/stop/890570/gtfs/,0,
890571,890571,Equardo Road,,-19.231,146.670066,,http://translink.com.au/stop/890571/gtfs/,0,
890572,890572,Frendon Pde,,-19.233674,146.668288,,http://translink.com.au/stop/890572/gtfs/,0,
890573,890573,Bonnett Rd,,-19.235966,146.666459,,http://translink.com.au/stop/890573/gtfs/,0,
890574,890574,Mt Low Parkway / Bruce Highway,,-19.238514,146.665133,,http://translink.com.au/stop/890574/gtfs/,0,
890575,890575,Veales Rd,,-19.240229,146.65349,,http://translink.com.au/stop/890575/gtfs/,0,
890576,890576,St Anthony's,,-19.244422,146.65302,,http://translink.com.au/stop/890576/gtfs/,0,
890577,890577,Joanne St,,-19.245859,146.652237,,,0,
890578,890578,Darling St,,-19.24655,146.648759,,http://translink.com.au/stop/890578/gtfs/,0,
890579,890579,Macquarie St,,-19.249094,146.646446,,http://translink.com.au/stop/890579/gtfs/,0,
890580,890580,Jensen Rd 890580,,-19.25099,146.651045,,http://translink.com.au/stop/890580/gtfs/,0,
890581,890581,Jensen Rd 890581,,-19.251324,146.655464,,http://translink.com.au/stop/890581/gtfs/,0,
890582,890582,Geaney La,,-19.248052,146.661646,,http://translink.com.au/stop/890582/gtfs/,0,
890583,890583,Edinburgh Dr,,-19.248648,146.670588,,http://translink.com.au/stop/890583/gtfs/,0,
890584,890584,Meranti St,,-19.248873,146.672915,,http://translink.com.au/stop/890584/gtfs/,0,
890585,890585,Deeragun,,-19.246193,146.675815,,http://translink.com.au/stop/890585/gtfs/,0,
890586,890586,Woodland Ct,,-19.249288,146.677212,,http://translink.com.au/stop/890586/gtfs/,0,
890587,890587,Hank St,,-19.249523,146.679653,,http://translink.com.au/stop/890587/gtfs/,0,
890588,890588,Coconut Glen Van Village,,-19.261872,146.713554,,http://translink.com.au/stop/890588/gtfs/,0,
890589,890589,Coral Coast Tourist Park,,-19.262388,146.747312,,http://translink.com.au/stop/890589/gtfs/,0,
890590,890590,Sonia St,,-19.359445,146.732112,,http://translink.com.au/stop/890590/gtfs/,0,
890591,890591,Santal Dr,,-19.354588,146.73224,,http://translink.com.au/stop/890591/gtfs/,0,
890592,890592,Loam Island,,-19.351514,146.731326,,http://translink.com.au/stop/890592/gtfs/,0,
890593,890593,Illuta St,,-19.348961,146.729924,,http://translink.com.au/stop/890593/gtfs/,0,
890594,890594,Dollview Ave,,-19.346,146.728793,,http://translink.com.au/stop/890594/gtfs/,0,
890595,890595,Pinnacle Dr,,-19.340435,146.725423,,http://translink.com.au/stop/890595/gtfs/,0,
890596,890596,Mallee St,,-19.340187,146.722665,,http://translink.com.au/stop/890596/gtfs/,0,
890597,890597,Pelican Ave,,-19.339362,146.719152,,http://translink.com.au/stop/890597/gtfs/,0,
890598,890598,Thuringowa State High School,,-19.336521,146.719194,,http://translink.com.au/stop/890598/gtfs/,0,
890599,890599,Jabiru Park,,-19.334005,146.721228,,http://translink.com.au/stop/890599/gtfs/,0,
890600,890600,Falcon Cr,,-19.334083,146.723131,,http://translink.com.au/stop/890600/gtfs/,0,
890601,890601,Gouldian / Lorikeet,,-19.332051,146.724712,,http://translink.com.au/stop/890601/gtfs/,0,
890602,890602,Gregory St (Condon),,-19.322271,146.727844,,http://translink.com.au/stop/890602/gtfs/,0,
890603,890603,Sunland Plaza,,-19.319941,146.726609,,http://translink.com.au/stop/890603/gtfs/,0,
890604,890604,Kirwan State High School,,-19.309135,146.734627,,http://translink.com.au/stop/890604/gtfs/,0,
890605,890605,Malbon Rd,,-19.307273,146.738384,,http://translink.com.au/stop/890605/gtfs/,0,
890606,890606,Silky Oak St,,-19.31011,146.740399,,http://translink.com.au/stop/890606/gtfs/,0,
890607,890607,Ferntree St,,-19.311965,146.740198,,http://translink.com.au/stop/890607/gtfs/,0,
890610,890610,Forest Ave,,-19.313073,146.742785,,http://translink.com.au/stop/890610/gtfs/,0,
890611,890611,Louise St,,-19.310754,146.746977,,http://translink.com.au/stop/890611/gtfs/,0,
890612,890612,Valencia St,,-19.309407,146.748571,,http://translink.com.au/stop/890612/gtfs/,0,
890613,890613,Alice St,,-19.306345,146.751231,,http://translink.com.au/stop/890613/gtfs/,0,
890614,890614,Killara St,,-19.30313,146.75317,,http://translink.com.au/stop/890614/gtfs/,0,
890615,890615,Fitzroy St,,-19.300475,146.755214,,http://translink.com.au/stop/890615/gtfs/,0,
890616,890616,Ignatius Park College,,-19.299219,146.757108,,http://translink.com.au/stop/890616/gtfs/,0,
890618,890618,Anne St,,-19.296644,146.768284,,http://translink.com.au/stop/890618/gtfs/,0,
890619,890619,Charlotte St,,-19.29622,146.770109,,http://translink.com.au/stop/890619/gtfs/,0,
890620,890620,Aitkenvale Library,,-19.296123,146.772459,,http://translink.com.au/stop/890620/gtfs/,0,
890621,890621,Rogers St,,-19.29636,146.775927,,http://translink.com.au/stop/890621/gtfs/,0,
890622,890622,Cathedral School,,-19.295796,146.777914,,http://translink.com.au/stop/890622/gtfs/,0,
890623,890623,Ross River Rd / Gulliver St,,-19.295111,146.781736,,http://translink.com.au/stop/890623/gtfs/,0,
890624,890624,Mango Ave,,-19.294891,146.785256,,http://translink.com.au/stop/890624/gtfs/,0,
890625,890625,Mundingburra State School,,-19.294989,146.788646,,http://translink.com.au/stop/890625/gtfs/,0,
890626,890626,Mabin St,,-19.293702,146.791887,,http://translink.com.au/stop/890626/gtfs/,0,
890627,890627,Rising Sun,,-19.291658,146.795007,,http://translink.com.au/stop/890627/gtfs/,0,
890628,890628,Jameson St,,-19.289494,146.796365,,http://translink.com.au/stop/890628/gtfs/,0,
890629,890629,Townsend St,,-19.285902,146.797013,,http://translink.com.au/stop/890629/gtfs/,0,
890630,890630,Soule St,,-19.283478,146.797626,,http://translink.com.au/stop/890630/gtfs/,0,
890631,890631,Bayswater Tce,,-19.281007,146.798636,,http://translink.com.au/stop/890631/gtfs/,0,
890632,890632,Hermit Park,,-19.278426,146.799694,,http://translink.com.au/stop/890632/gtfs/,0,
890634,890634,Townsville City,,-19.260257,146.814228,,http://translink.com.au/stop/890634/gtfs/,0,
890635,890635,Western Campus,,-19.325462,146.752078,,http://translink.com.au/stop/890635/gtfs/,0,
890636,890636,Kirwan (Golf Links Dr),,-19.31816,146.709421,,http://translink.com.au/stop/890636/gtfs/,0,
890637,890637,Golf Links / Sandstone,,-19.305267,146.717685,,http://translink.com.au/stop/890637/gtfs/,0,
890638,890638,Gardenia Ave,,-19.307744,146.713812,,http://translink.com.au/stop/890638/gtfs/,0,
890639,890639,Mt Louisa,,-19.270244,146.72976,,http://translink.com.au/stop/890639/gtfs/,0,
890640,890640,Bayswater / Mooney,,-19.274674,146.773002,,http://translink.com.au/stop/890640/gtfs/,0,
890641,890641,Fairfield Waters Dr/ Lakeland Bvd,,-19.303592,146.812273,,http://translink.com.au/stop/890641/gtfs/,0,
890642,890642,Fairfield Waters Dr/ Lakeland Bvd,,-19.303838,146.812067,,http://translink.com.au/stop/890642/gtfs/,0,
890643,890643,Oonoonba Rd,,-19.302885,146.813942,,http://translink.com.au/stop/890643/gtfs/,0,
890644,890644,Mount View Park,,-19.293573,146.741539,,http://translink.com.au/stop/890644/gtfs/,0,
890645,890645,Lynwood Ave,,-19.200414,146.673016,,http://translink.com.au/stop/890645/gtfs/,0,
890647,890647,Lionel Turner Dr,,-19.201439,146.673698,,http://translink.com.au/stop/890647/gtfs/,0,
890648,890648,Bohlevale State School,,-19.250224,146.686724,,http://translink.com.au/stop/890648/gtfs/,0,
890651,890651,Sturt Street,,-19.258108,146.816529,,http://translink.com.au/stop/890651/gtfs/,0,
890652,890652,Sturt Street,,-19.258283,146.816737,,http://translink.com.au/stop/890652/gtfs/,0,
890656,890656,North Shore,,-19.254124,146.702196,,http://translink.com.au/stop/890656/gtfs/,0,
890657,890657,Nexus Dr,,-19.255227,146.703253,,http://translink.com.au/stop/890657/gtfs/,0,
890658,890658,Nexus Dr,,-19.256559,146.702441,,http://translink.com.au/stop/890658/gtfs/,0,
890659,890659,Hank Street,,-19.249633,146.679482,,http://translink.com.au/stop/890659/gtfs/,0,
890660,890660,Woodland Ct,,-19.249387,146.676915,,http://translink.com.au/stop/890660/gtfs/,0,
890661,890661,Deeragun,,-19.246367,146.675899,,http://translink.com.au/stop/890661/gtfs/,0,
890662,890662,Meranti St,,-19.248971,146.67262,,http://translink.com.au/stop/890662/gtfs/,0,
890663,890663,Edinburgh Drv,,-19.248721,146.67003,,http://translink.com.au/stop/890663/gtfs/,0,
890664,890664,Domain Central,,-19.276241,146.757529,,http://translink.com.au/stop/890664/gtfs/,0,
890666,890666,Trade Training Centre,,-19.260565,146.726906,,http://translink.com.au/stop/890666/gtfs/,0,
890667,890667,Trade Training Centre,,-19.260878,146.726916,,http://translink.com.au/stop/890667/gtfs/,0,
890668,890668,Jensen Road,,-19.250981,146.649342,,http://translink.com.au/stop/890668/gtfs/,0,
890669,890669,Darling Street,,-19.245933,146.649924,,http://translink.com.au/stop/890669/gtfs/,0,
890670,890670,Edison / Newton,,-19.325273,146.810234,,http://translink.com.au/stop/890670/gtfs/,0,
890671,890671,Edison / Newton,,-19.325104,146.810633,,http://translink.com.au/stop/890671/gtfs/,0,
890672,890672,Townsville State High School (First Street),,-19.275236,146.810699,,,0,
890673,890673,Test stop texas St,,-19.278309,146.632843,,,0,
890674,890674,Greenwood Ave Overton Cir,,-19.2955,146.733506,,http://translink.com.au/stop/890674/gtfs/,0,
890675,890675,Riverway Drv( Loam Island),,-19.3527,146.731974,,http://translink.com.au/stop/890675/gtfs/,0,
890676,890676,Walker St Blackwood St,,-19.260323,146.813306,,http://translink.com.au/stop/890676/gtfs/,0,
890677,890677,Mill Fulham,,-19.293246,146.747888,,http://translink.com.au/stop/890677/gtfs/,0,
