gtfs_id,stop_code,name,stop_desc,lat,lon,transport:zone,url,location_type,parent_station,platform_code
1,1,Herschel Street stop 1 near North Quay,,-27.467834,153.019079,1,http://translink.com.au/stop/000001/gtfs/,0,,
10,10,Ann Street stop 10 at King George Square,,-27.468003,153.02397,1,http://translink.com.au/stop/000010/gtfs/,0,,
100,100,Parliament stop 94A Margaret St,,-27.473751,153.026745,1,http://translink.com.au/stop/000100/gtfs/,0,,
1000,1000,Handford Rd near Enborisoff St,,-27.339115,153.043881,4,http://translink.com.au/stop/001000/gtfs/,0,,
10000,10000,Balcara Ave near Allira Cr,,-27.344106,153.024982,4,http://translink.com.au/stop/010000/gtfs/,0,,
10001,10001,"Nudgee Rd at Golf Course, stop 35/32",,-27.372728,153.098237,4,http://translink.com.au/stop/010001/gtfs/,0,,
10002,10002,"Nudgee Rd at Golf Course, stop 32/35",,-27.372787,153.098416,4,http://translink.com.au/stop/010002/gtfs/,0,,
10003,10003,"Approach Rd near Mellifont St, stop 31",,-27.382612,153.090391,4,http://translink.com.au/stop/010003/gtfs/,0,,
10005,10005,"Songbird Way, Lemke Road",,-27.339592,153.042985,4,http://translink.com.au/stop/010005/gtfs/,0,,
10006,10006,Redwood St at Farrant Street,,-27.402593,153.007388,3,http://translink.com.au/stop/010006/gtfs/,0,,
10007,10007,"Ridge St at St Vincents, stop 19",,-27.385924,153.062459,3,http://translink.com.au/stop/010007/gtfs/,0,,
10008,10008,"Ridge St at Scott Street, stop 18",,-27.387328,153.063647,3,http://translink.com.au/stop/010008/gtfs/,0,,
10009,10009,"Ridge St at Scott Street, stop 18",,-27.386816,153.063368,3,http://translink.com.au/stop/010009/gtfs/,0,,
1001,1001,"Queen Street, platform A5",,-27.470552,153.024575,1,http://translink.com.au/stop/001001/gtfs/,0,place_QSBS,A5
10010,10010,"Saint Vincents Rd near Ridge St, stop 19",,-27.385663,153.061812,3,http://translink.com.au/stop/010010/gtfs/,0,,
10011,10011,Goggs Rd near Seventeen Mile Rocks Rd,,-27.535123,152.949066,4,http://translink.com.au/stop/010011/gtfs/,0,,
10013,10013,"Sandgate Rd at Nundah, stop 3",,-27.398972,153.059158,3,http://translink.com.au/stop/010013/gtfs/,0,,
10014,10014,"Bellwood St near Glen Ross Rd, stop 54a",,-27.554417,152.945988,4,http://translink.com.au/stop/010014/gtfs/,0,,
10015,10015,"Bellwood St near Glen Ross Rd, stop 54a",,-27.55428,152.945861,4,http://translink.com.au/stop/010015/gtfs/,0,,
10016,10016,Ridley Rd at Ridley Road South,,-27.352058,153.004353,4,http://translink.com.au/stop/010016/gtfs/,0,,
10017,10017,Ridley Rd at Ridley Road South,,-27.351409,153.004346,4,http://translink.com.au/stop/010017/gtfs/,0,,
10018,10018,Dorville Rd at Dorville North,,-27.345541,153.022563,4,http://translink.com.au/stop/010018/gtfs/,0,,
1002,1002,"Queen Street, platform A6",,-27.470675,153.024755,1,http://translink.com.au/stop/001002/gtfs/,0,place_QSBS,A6
10020,10020,Balcara Ave near Allira Cr,,-27.344441,153.024334,4,http://translink.com.au/stop/010020/gtfs/,0,,
10021,10021,Balcara Ave at Beams - Balcara,,-27.347847,153.027001,4,http://translink.com.au/stop/010021/gtfs/,0,,
10022,10022,Sinnamon Rd at Windermere near Amazons Pl,,-27.532714,152.949326,4,http://translink.com.au/stop/010022/gtfs/,0,,
10023,10023,Kenmore Rd at Norman Street,,-27.524412,152.949985,3,http://translink.com.au/stop/010023/gtfs/,0,,
10024,10024,Queen Elizabeth Dr at Marylin Terrace,,-27.333821,152.955833,5,http://translink.com.au/stop/010024/gtfs/,0,,
10025,10025,Queen Elizabeth Dr at Hero,,-27.335447,152.952908,5,http://translink.com.au/stop/010025/gtfs/,0,,
10026,10026,"Elgar St at Rowton Street, stop 47",,-27.520257,153.071782,3,http://translink.com.au/stop/010026/gtfs/,0,,
10027,10027,"Heidelberg St near Mowbray Tce, stop 14",,-27.481829,153.04623,2,http://translink.com.au/stop/010027/gtfs/,0,,
10028,10028,Taylors Rd near Mitcham St,,-27.417726,152.979364,3,http://translink.com.au/stop/010028/gtfs/,0,,
10029,10029,Handford Rd at Handford - Roghan,,-27.341922,153.041315,4,http://translink.com.au/stop/010029/gtfs/,0,,
1003,1003,"Queen Street, platform A7",,-27.470652,153.024996,1,http://translink.com.au/stop/001003/gtfs/,0,place_QSBS,A7
10031,10031,"Hamilton Rd at Trouts Rd, stop 46",,-27.381369,153.0011,3,http://translink.com.au/stop/010031/gtfs/,0,,
10037,10037,"Avondale Rd at Avondale - Glen Ross, stop 61",,-27.547352,152.943421,4,http://translink.com.au/stop/010037/gtfs/,0,,
10038,10038,"Avondale Rd at Avondale - Northbrook, stop 60",,-27.54525,152.944985,4,http://translink.com.au/stop/010038/gtfs/,0,,
1004,1004,"Queen Street, platform A8",,-27.470526,153.025195,1,http://translink.com.au/stop/001004/gtfs/,0,place_QSBS,A8
10042,10042,"Tarragindi Rd at Sharon Street, stop 41",,-27.542069,153.032086,3,http://translink.com.au/stop/010042/gtfs/,0,,
10043,10043,Queen Elizabeth Dr at Corso Street,,-27.33751,152.950051,5,http://translink.com.au/stop/010043/gtfs/,0,,
10044,10044,"Tarragindi Rd at Sharon Street, stop 41",,-27.54203,153.032237,3,http://translink.com.au/stop/010044/gtfs/,0,,
10045,10045,"Glen Ross Rd at St Amand Street, stop 53",,-27.55125,152.942862,4,http://translink.com.au/stop/010045/gtfs/,0,,
10046,10046,"Glen Ross Rd at Wanata Street, stop 54",,-27.549,152.943339,4,http://translink.com.au/stop/010046/gtfs/,0,,
10047,10047,"Blunder Rd near Rosella St, stop 60A",,-27.598757,152.987852,5,http://translink.com.au/stop/010047/gtfs/,0,,
10049,10049,"Wallaroo Way near Brushtail Cr, stop 61",,-27.606422,152.985126,5,http://translink.com.au/stop/010049/gtfs/,0,,
1005,1005,Queen Elizabeth Dr at Hero Street,,-27.335962,152.952169,5,http://translink.com.au/stop/001005/gtfs/,0,,
10050,10050,"Blunder Rd at Doolandella North, stop 61a",,-27.605895,152.987748,5,http://translink.com.au/stop/010050/gtfs/,0,,
10052,10052,"Azalea St at Barberry St, stop 65",,-27.590417,152.968959,5,http://translink.com.au/stop/010052/gtfs/,0,,
10053,10053,"Rosemary St at Rosemary - Fir, stop 73",,-27.581266,152.974839,5,http://translink.com.au/stop/010053/gtfs/,0,,
10054,10054,"Rosemary St at Holly St, stop 74",,-27.584504,152.975612,5,http://translink.com.au/stop/010054/gtfs/,0,,
10055,10055,"Rosemary St at Inala School, stop 75",,-27.585864,152.975937,5,http://translink.com.au/stop/010055/gtfs/,0,,
10056,10056,"Days Rd at Yarradale Street, stop 2A",,-27.424844,153.007958,2,http://translink.com.au/stop/010056/gtfs/,0,,
10057,10057,"Days Rd at Wilston Road, stop 1A",,-27.425459,153.011306,2,http://translink.com.au/stop/010057/gtfs/,0,,
10058,10058,"Gympie Rd at Aspley South, stop 41",,-27.369999,153.018788,4,http://translink.com.au/stop/010058/gtfs/,0,,
10059,10059,"Gympie Rd near Albany Creek Rd, stop 42",,-27.366169,153.017008,4,http://translink.com.au/stop/010059/gtfs/,0,,
1006,1006,"Queen Street, platform A9",,-27.470372,153.025416,1,http://translink.com.au/stop/001006/gtfs/,0,place_QSBS,A9
10060,10060,Gympie Rd near Gayford St,,-27.362373,153.016939,4,http://translink.com.au/stop/010060/gtfs/,0,,
10061,10061,"Gympie Rd at Gayford Street, stop 44",,-27.359794,153.01665,4,http://translink.com.au/stop/010061/gtfs/,0,,
10062,10062,"Gympie Rd at Brickfield Street, stop 45",,-27.357899,153.016768,4,http://translink.com.au/stop/010062/gtfs/,0,,
10063,10063,Queen Elizabeth Dr at Corso Street,,-27.337395,152.94997,5,http://translink.com.au/stop/010063/gtfs/,0,,
10064,10064,"Gympie Rd at Brickfield Street, stop 45/44",,-27.358884,153.017047,4,http://translink.com.au/stop/010064/gtfs/,0,,
10065,10065,"Tarragindi Rd at Davey Street, stop 40",,-27.541173,153.031658,3,http://translink.com.au/stop/010065/gtfs/,0,,
10066,10066,"Gympie Rd at Aspley Shops, stop 43",,-27.361745,153.017316,4,http://translink.com.au/stop/010066/gtfs/,0,,
10067,10067,"Gympie Rd at Aspley, stop 43",,-27.362485,153.017317,4,http://translink.com.au/stop/010067/gtfs/,0,,
10070,10070,Englefield Rd at Idriess Street,,-27.557877,152.974401,4,http://translink.com.au/stop/010070/gtfs/,0,,
10071,10071,Queen Elizabeth Dr at Marylin Terrace,,-27.334101,152.955919,5,http://translink.com.au/stop/010071/gtfs/,0,,
10072,10072,Englefield Rd at Idriess Street,,-27.557644,152.974913,4,http://translink.com.au/stop/010072/gtfs/,0,,
10073,10073,Englefield Rd at Lucock Street,,-27.558152,152.972385,4,http://translink.com.au/stop/010073/gtfs/,0,,
10074,10074,Englefield Rd at Englefield West,,-27.558746,152.970057,4,http://translink.com.au/stop/010074/gtfs/,0,,
10075,10075,"Dowse St near Charlotte St, stop 5",,-27.461167,153.00916,2,http://translink.com.au/stop/010075/gtfs/,0,,
10076,10076,"Dowse St near Charlotte St, stop 5",,-27.461278,153.009262,2,http://translink.com.au/stop/010076/gtfs/,0,,
10077,10077,"Enoggera Rd at Newmarket, stop 20",,-27.437667,153.007261,2,http://translink.com.au/stop/010077/gtfs/,0,,
10078,10078,"Roma St at Upper Roma Street, stop 3",,-27.466129,153.015439,1,http://translink.com.au/stop/010078/gtfs/,0,,
10079,10079,"Mollison St near Melbourne St, stop 5",,-27.477055,153.011924,1,http://translink.com.au/stop/010079/gtfs/,0,,
1008,1008,"Queen Street, platform C2",,-27.470357,153.025136,1,http://translink.com.au/stop/001008/gtfs/,0,place_QSBS,C2
10082,10082,"Enoggera, platform B1",,-27.420314,152.991869,2/3,http://translink.com.au/stop/010082/gtfs/,0,place_INTENO,B1
10083,10083,"Enoggera, platform C",,-27.420473,152.99223,2/3,http://translink.com.au/stop/010083/gtfs/,0,place_INTENO,C
10084,10084,"Enoggera, platform D",,-27.420524,152.992347,2/3,http://translink.com.au/stop/010084/gtfs/,0,place_INTENO,D
10089,10089,"Ernest St at Brisbane State High, stop 3",,-27.480461,153.019665,1,http://translink.com.au/stop/010089/gtfs/,0,,
1009,1009,"Queen Street, platform C1",,-27.470371,153.024839,1,http://translink.com.au/stop/001009/gtfs/,0,place_QSBS,C1
10090,10090,Albany Creek Rd at Bangalow Street,,-27.359747,153.002629,4,http://translink.com.au/stop/010090/gtfs/,0,,
10093,10093,Englefield Rd at Englefield West,,-27.558645,152.969912,4,http://translink.com.au/stop/010093/gtfs/,0,,
10096,10096,"Tingal Rd at Wynnum North State School, stop 10/5",,-27.434366,153.166299,4,http://translink.com.au/stop/010096/gtfs/,0,,
10097,10097,Manly Rd near Preston Rd,,-27.459064,153.176892,4,http://translink.com.au/stop/010097/gtfs/,0,,
10098,10098,"Tingal Rd at Wynnum North State School, stop 10/5",,-27.43482,153.166316,4,http://translink.com.au/stop/010098/gtfs/,0,,
10099,10099,Manly Rd near Fisher St stop 70,,-27.458586,153.177174,4,http://translink.com.au/stop/010099/gtfs/,0,,
101,101,William Street stop 101 near Margaret St,,-27.474139,153.025325,1,http://translink.com.au/stop/000101/gtfs/,0,,
1010,1010,"Queen Street, platform B1",,-27.470161,153.02477,1,http://translink.com.au/stop/001010/gtfs/,0,place_QSBS,B1
10100,10100,"Hamilton Rd at Unmack Street, stop 50",,-27.387543,153.041435,3/4,http://translink.com.au/stop/010100/gtfs/,0,,
10101,10101,Old Northern Rd at Everton Junction near Drake st,,-27.399706,152.986175,3,http://translink.com.au/stop/010101/gtfs/,0,,
10103,10103,Hamilton Rd at Chermside,,-27.386058,153.03162,3/4,http://translink.com.au/stop/010103/gtfs/,0,,
10104,10104,"Hamilton Rd at Corrie Street, stop 51",,-27.387041,153.038887,3/4,http://translink.com.au/stop/010104/gtfs/,0,,
10106,10106,"Nudgee Rd near Allen St, stop 29",,-27.436634,153.070864,2,http://translink.com.au/stop/010106/gtfs/,0,,
10107,10107,"Osborne Rd at Osborne North, stop 51",,-27.40267,152.979171,3,http://translink.com.au/stop/010107/gtfs/,0,,
10108,10108,"Whites Rd at Curtis Street, stop 71",,-27.460225,153.177578,4,http://translink.com.au/stop/010108/gtfs/,0,,
10109,10109,"Whites Rd at Curtis Street, stop 71",,-27.460666,153.177886,4,http://translink.com.au/stop/010109/gtfs/,0,,
1011,1011,"Queen Street, platform B2",,-27.47007,153.02489,1,http://translink.com.au/stop/001011/gtfs/,0,place_QSBS,B2
10110,10110,"Whites Rd at Gannon Avenue, stop 72",,-27.461492,153.179042,4,http://translink.com.au/stop/010110/gtfs/,0,,
10111,10111,"Whites Rd at Manly Gardens, stop 73",,-27.463601,153.180486,4,http://translink.com.au/stop/010111/gtfs/,0,,
10112,10112,"Whites Rd at Manly Gardens, stop 73",,-27.463498,153.180593,4,http://translink.com.au/stop/010112/gtfs/,0,,
10113,10113,"Whites Rd at Gannon Avenue, stop 72",,-27.461867,153.179271,4,http://translink.com.au/stop/010113/gtfs/,0,,
10114,10114,"Whites Rd at Wynnum Hospital, stop 74",,-27.46461,153.181093,4,http://translink.com.au/stop/010114/gtfs/,0,,
10115,10115,"Whites Rd at Wynnum Hospital, stop 74",,-27.464867,153.181053,4,http://translink.com.au/stop/010115/gtfs/,0,,
10116,10116,"Whites Rd at Hindes Street, stop 75",,-27.466314,153.181848,4,http://translink.com.au/stop/010116/gtfs/,0,,
10117,10117,"Whites Rd at Hindes Street, stop 75",,-27.466511,153.181784,4,http://translink.com.au/stop/010117/gtfs/,0,,
10118,10118,"Tryon St at Centre Tryon Street, stop 80",,-27.56073,153.086874,3,http://translink.com.au/stop/010118/gtfs/,0,,
10119,10119,Albany Creek Rd at Bangalow Street,,-27.35946,153.002571,4,http://translink.com.au/stop/010119/gtfs/,0,,
10120,10120,"Andrew St near Ronald St, stop 100",,-27.445804,153.170164,4,http://translink.com.au/stop/010120/gtfs/,0,,
10121,10121,"Oceana Tce at Lota House, stop 81",,-27.463218,153.188237,4,http://translink.com.au/stop/010121/gtfs/,0,,
10122,10122,"Creek Rd at Fursden Road, stop 47",,-27.485727,153.098928,3,http://translink.com.au/stop/010122/gtfs/,0,,
10123,10123,"Creek Rd at Carindale Tennis Centre, stop 46",,-27.487765,153.100114,3,http://translink.com.au/stop/010123/gtfs/,0,,
10125,10125,"Stanley Rd at Pembroke Street, stop 42",,-27.488892,153.092815,3,http://translink.com.au/stop/010125/gtfs/,0,,
10126,10126,"Stanley Rd at Pembroke Street, stop 42",,-27.488806,153.093113,3,http://translink.com.au/stop/010126/gtfs/,0,,
10127,10127,Douglas St at Douglas St Central,,-27.562761,152.970352,4,http://translink.com.au/stop/010127/gtfs/,0,,
10128,10128,Douglas St at Douglas St Central,,-27.563706,152.97044,4,http://translink.com.au/stop/010128/gtfs/,0,,
10129,10129,Douglas St at Douglas St South,,-27.565391,152.971001,4,http://translink.com.au/stop/010129/gtfs/,0,,
1013,1013,"Queen Street, platform B4",,-27.469884,153.025099,1,http://translink.com.au/stop/001013/gtfs/,0,place_QSBS,B4
10130,10130,Strathmore St near Caithness St,,-27.403857,153.030209,3,http://translink.com.au/stop/010130/gtfs/,0,,
10131,10131,Douglas St at Douglas St South,,-27.565368,152.97085,4,http://translink.com.au/stop/010131/gtfs/,0,,
10132,10132,"Crichton St near Park Rd, stop 27",,-27.523766,153.018463,2,http://translink.com.au/stop/010132/gtfs/,0,,
10133,10133,"Moggill Rd at Stamford Road, stop 22/23",,-27.497417,152.974393,2/3,http://translink.com.au/stop/010133/gtfs/,0,,
10134,10134,"Brassey St near Lamington Ave, stop 31",,-27.430397,153.073016,2,http://translink.com.au/stop/010134/gtfs/,0,,
10135,10135,"Tarragindi Rd at Davey Street, stop 40",,-27.541276,153.031491,3,http://translink.com.au/stop/010135/gtfs/,0,,
10136,10136,"Stanley Rd at Arrol Street, stop 38",,-27.48728,153.082346,2,http://translink.com.au/stop/010136/gtfs/,0,,
10137,10137,Albany Creek Rd at Leitchs Road,,-27.346154,152.976061,4,http://translink.com.au/stop/010137/gtfs/,0,,
10138,10138,South Pine Rd at Hylacola,,-27.345073,152.962301,4,http://translink.com.au/stop/010138/gtfs/,0,,
10139,10139,"Buzacott St near Buckley St, stop 48a",,-27.507686,153.098234,3,http://translink.com.au/stop/010139/gtfs/,0,,
1014,1014,Goggs Rd at Windermere Village Shopping Centre,,-27.535238,152.949178,4,http://translink.com.au/stop/001014/gtfs/,0,,
10140,10140,Old Cleveland Rd at Belmont Primary School,,-27.502254,153.114637,3,http://translink.com.au/stop/010140/gtfs/,0,,
10141,10141,"Heidelberg St at Heath Street, stop 15",,-27.480224,153.046532,2,http://translink.com.au/stop/010141/gtfs/,0,,
10142,10142,"Harrison St near McConnell St, stop 40c",,-27.443687,153.060065,2,http://translink.com.au/stop/010142/gtfs/,0,,
10143,10143,"Byron St near Apollo Rd, stop 41",,-27.443898,153.063369,2,http://translink.com.au/stop/010143/gtfs/,0,,
10144,10144,"Apollo Rd at Shakespeare Street, stop 39",,-27.446394,153.063316,2,http://translink.com.au/stop/010144/gtfs/,0,,
10145,10145,"Heidelberg St at Heath Street, stop 15",,-27.480205,153.046659,2,http://translink.com.au/stop/010145/gtfs/,0,,
10146,10146,"Heidelberg St near Mowbray Tce, stop 14",,-27.481976,153.046325,2,http://translink.com.au/stop/010146/gtfs/,0,,
10148,10148,Albany Creek Rd at Hawkins,,-27.347822,152.978127,4,http://translink.com.au/stop/010148/gtfs/,0,,
10149,10149,Albany Creek Rd at Hawkins,,-27.346884,152.977335,4,http://translink.com.au/stop/010149/gtfs/,0,,
1015,1015,"Queen Street, platform B5",,-27.469797,153.025212,1,http://translink.com.au/stop/001015/gtfs/,0,place_QSBS,B5
10150,10150,"Hampden St at Hopetoun Street, stop 30",,-27.428782,153.074426,2,http://translink.com.au/stop/010150/gtfs/,0,,
10151,10151,"Gerler Rd at Dorames Street, stop 37/36",,-27.419184,153.072921,2,http://translink.com.au/stop/010151/gtfs/,0,,
10152,10152,"Waterworks Rd at Girraween Grove, stop 21/22",,-27.448078,152.981618,2,http://translink.com.au/stop/010152/gtfs/,0,,
10153,10153,"Waterworks Rd at Ashgrove, stop 17",,-27.445555,152.9928,2,http://translink.com.au/stop/010153/gtfs/,0,,
10154,10154,"Kaloma Rd at Kaloma - Harward, stop 38",,-27.436464,152.942708,3,http://translink.com.au/stop/010154/gtfs/,0,,
10155,10155,"Kaloma Rd at Woorama Rd, stop 39",,-27.435988,152.940412,3,http://translink.com.au/stop/010155/gtfs/,0,,
10156,10156,"Hilder Rd at Kaloma - Hilder, stop 41",,-27.436321,152.935247,3,http://translink.com.au/stop/010156/gtfs/,0,,
10157,10157,"Waterworks Rd at Hilder Road, stop 46",,-27.442044,152.938733,3,http://translink.com.au/stop/010157/gtfs/,0,,
10158,10158,"Waterworks Rd at Hilder Road, stop 46",,-27.442195,152.938726,3,http://translink.com.au/stop/010158/gtfs/,0,,
10160,10160,"Waterworks Rd at Girraween Grove, stop 21",,-27.4475,152.982734,2,http://translink.com.au/stop/010160/gtfs/,0,,
10161,10161,"Koorong St at Devonhill St, stop 37",,-27.453547,152.95002,3,http://translink.com.au/stop/010161/gtfs/,0,,
10162,10162,"Musgrave Rd at Red Hill Shops, stop 8",,-27.455044,153.006987,2,http://translink.com.au/stop/010162/gtfs/,0,,
10163,10163,"Lutwyche Rd at Old Council Chambers, stop 16",,-27.429326,153.032396,2,http://translink.com.au/stop/010163/gtfs/,0,,
10164,10164,"Lutwyche Rd at Maygar Street, stop 17",,-27.427302,153.032244,2,http://translink.com.au/stop/010164/gtfs/,0,,
10165,10165,"Carberry St near Thomas St, stop 25C",,-27.427037,153.014822,2,http://translink.com.au/stop/010165/gtfs/,0,,
10166,10166,"Days Rd at Yarradale Street, stop 2A",,-27.42499,153.008154,2,http://translink.com.au/stop/010166/gtfs/,0,,
10167,10167,Queen Elizabeth Dr at Eatonvale,,-27.343729,152.950269,5,http://translink.com.au/stop/010167/gtfs/,0,,
10168,10168,"Grange Rd at Raymont Road, stop 27",,-27.420919,153.015186,2,http://translink.com.au/stop/010168/gtfs/,0,,
10170,10170,Chermside Shopping Centre interchange B,,-27.385549,153.031285,3/4,http://translink.com.au/stop/010170/gtfs/,0,place_INTCHE,B
10171,10171,Chermside Shopping Centre interchange E,,-27.38574,153.031711,3/4,http://translink.com.au/stop/010171/gtfs/,0,place_INTCHE,E
10173,10173,Chermside Shopping Centre interchange A,,-27.385581,153.031522,3/4,http://translink.com.au/stop/010173/gtfs/,0,place_INTCHE,A
10174,10174,"Lutwyche Rd at Lutwyche, stop 20",,-27.421776,153.033784,2,http://translink.com.au/stop/010174/gtfs/,0,,
10175,10175,Albany Creek Rd at Pinnaroo,,-27.353055,152.991885,4,http://translink.com.au/stop/010175/gtfs/,0,,
10177,10177,"Carwoola St at Bardon, stop 22",,-27.464524,152.968122,2,http://translink.com.au/stop/010177/gtfs/,0,,
10178,10178,Albany Creek Rd at Pinnaroo,,-27.352974,152.991045,4,http://translink.com.au/stop/010178/gtfs/,0,,
10179,10179,"Latrobe Tce at Old Ithaca Fire, stop 9",,-27.458818,152.999818,2,http://translink.com.au/stop/010179/gtfs/,0,,
10180,10180,"Latrobe Tce at Paddington Central, stop 10",,-27.459242,152.99807,2,http://translink.com.au/stop/010180/gtfs/,0,,
10181,10181,"MacGregor Tce at Bardon, stop 15",,-27.458126,152.986375,2,http://translink.com.au/stop/010181/gtfs/,0,,
10182,10182,Old Cleveland Rd at Burke Street stop 25,,-27.492161,153.063752,2,http://translink.com.au/stop/010182/gtfs/,0,,
10183,10183,"Zahel St at Williams Field, stop 40",,-27.492969,153.100686,3,http://translink.com.au/stop/010183/gtfs/,0,,
10185,10185,"Old Cleveland Rd at Coorparoo, stop 23",,-27.494888,153.058817,2,http://translink.com.au/stop/010185/gtfs/,0,,
10186,10186,Elizabeth Dr at Saraband Drive,,-27.341156,152.948695,5,http://translink.com.au/stop/010186/gtfs/,0,,
10187,10187,"Jones Rd at Hill Crescent, stop 35/36",,-27.496928,153.088418,3,http://translink.com.au/stop/010187/gtfs/,0,,
10188,10188,"Jones Rd at Hill Crescent, stop 35/36",,-27.496744,153.088576,3,http://translink.com.au/stop/010188/gtfs/,0,,
10189,10189,"Old Cleveland Rd at Stones Corner Library, stop 17",,-27.498482,153.043671,2,http://translink.com.au/stop/010189/gtfs/,0,,
1019,1019,"Burilda St at Derby Street, stop 45",,-27.419561,153.068326,2,http://translink.com.au/stop/001019/gtfs/,0,,
10190,10190,Old Cleveland Rd at Coorparoo stop 23,,-27.494703,153.058566,2,http://translink.com.au/stop/010190/gtfs/,0,,
10191,10191,"Kingsford Smith Dr at Smithy, stop 41",,-27.428694,153.097206,3,http://translink.com.au/stop/010191/gtfs/,0,,
10192,10192,"Chapel Hill Rd near Neptune St, stop 1",,-27.506499,152.952289,3,http://translink.com.au/stop/010192/gtfs/,0,,
10193,10193,Bedivere St at Lindisfarne Street,,-27.493604,153.108084,3,http://translink.com.au/stop/010193/gtfs/,0,,
10194,10194,Bedivere St at Lindisfarne Street,,-27.493423,153.107995,3,http://translink.com.au/stop/010194/gtfs/,0,,
10195,10195,"Gallipoli Rd at Buzacott Street, stop 48a",,-27.507674,153.097374,3,http://translink.com.au/stop/010195/gtfs/,0,,
10196,10196,"Edmondstone Rd at Parkview, stop 14",,-27.44296,153.041118,2,http://translink.com.au/stop/010196/gtfs/,0,,
10197,10197,"Edmondstone Rd at Parkview, stop 14",,-27.443455,153.041287,2,http://translink.com.au/stop/010197/gtfs/,0,,
10198,10198,Albany Creek Rd at Aspley Bowl,,-27.362708,153.008572,4,http://translink.com.au/stop/010198/gtfs/,0,,
10199,10199,Albany Creek Rd at Aspley Bowl,,-27.362408,153.008554,4,http://translink.com.au/stop/010199/gtfs/,0,,
1020,1020,"Upper Roma St near Quay St, stop 3",,-27.46622,153.013917,1,http://translink.com.au/stop/001020/gtfs/,0,,
10200,10200,"Pinelands Rd at Barney Street, stop 70/71",,-27.593948,153.059661,4,http://translink.com.au/stop/010200/gtfs/,0,,
10201,10201,"Pinelands Rd at Barney Street, stop 71/70",,-27.594033,153.059318,4,http://translink.com.au/stop/010201/gtfs/,0,,
10204,10204,"Compton Rd at Sunnybank Hills Shops, stop 83",,-27.611476,153.057082,5,http://translink.com.au/stop/010204/gtfs/,0,,
10205,10205,"Compton Rd at Sunnybank Hills Shops, stop 83",,-27.611788,153.05743,5,http://translink.com.au/stop/010205/gtfs/,0,,
10208,10208,"Compton Rd at Frizzell Street, stop 85",,-27.611128,153.063436,5,http://translink.com.au/stop/010208/gtfs/,0,,
10209,10209,"Compton Rd at Frizzell Street, stop 85",,-27.611455,153.062966,5,http://translink.com.au/stop/010209/gtfs/,0,,
1021,1021,"Wickham St at Light Street, stop 7",,-27.452271,153.038857,1,http://translink.com.au/stop/001021/gtfs/,0,,
10210,10210,"Compton Rd at Kyabra Street, stop 86",,-27.611233,153.068824,5,http://translink.com.au/stop/010210/gtfs/,0,,
10211,10211,"Compton Rd near Kyabra Street, stop 86",,-27.61161,153.069371,5,http://translink.com.au/stop/010211/gtfs/,0,,
10212,10212,"Eisenhower St at Park, stop 87",,-27.612344,153.071125,5,http://translink.com.au/stop/010212/gtfs/,0,,
10213,10213,"Roosevelt Dr at Park, stop 87",,-27.612354,153.070748,5,http://translink.com.au/stop/010213/gtfs/,0,,
10214,10214,"Eisenhower St near Hoover Ct, stop 88",,-27.614124,153.071373,5,http://translink.com.au/stop/010214/gtfs/,0,,
10215,10215,"Roosevelt Dr near Penson St, stop 88",,-27.614436,153.07036,5,http://translink.com.au/stop/010215/gtfs/,0,,
10216,10216,"Harrison St at Washington Place, stop 90",,-27.618659,153.071322,5,http://translink.com.au/stop/010216/gtfs/,0,,
10217,10217,"Harrison St at Truman Court, stop 89",,-27.616026,153.071822,5,http://translink.com.au/stop/010217/gtfs/,0,,
10221,10221,"Gowan Rd at Calam North, stop 35",,-27.615961,153.061242,5,http://translink.com.au/stop/010221/gtfs/,0,,
10223,10223,"Appleby Rd at Quandeine Street, stop 34",,-27.405852,153.008664,3,http://translink.com.au/stop/010223/gtfs/,0,,
10225,10225,Gowan Rd at Pennant Hills,,-27.621529,153.060232,5,http://translink.com.au/stop/010225/gtfs/,0,,
10226,10226,"Stanley Rd at Sage Street, stop 41",,-27.488648,153.091103,3,http://translink.com.au/stop/010226/gtfs/,0,,
10227,10227,"Stanley Rd at Lunga Street, stop 40",,-27.488282,153.088507,2/3,http://translink.com.au/stop/010227/gtfs/,0,,
10228,10228,Stanley St E at Coorparoo Secondary College,,-27.487205,153.054765,2,http://translink.com.au/stop/010228/gtfs/,0,,
10229,10229,"Stringybark Dr at Martindale Street, stop 47",,-27.373884,153.005958,4,http://translink.com.au/stop/010229/gtfs/,0,,
1023,1023,"Appleby Rd at Quandeine Street, stop 34",,-27.406002,153.00849,3,http://translink.com.au/stop/001023/gtfs/,0,,
10230,10230,"Perth St at St Thomas Primary, stop 31",,-27.486446,153.073022,2,http://translink.com.au/stop/010230/gtfs/,0,,
10231,10231,"Oateson Skyline Dr at Darcy Road, stop 40",,-27.478969,153.071086,2,http://translink.com.au/stop/010231/gtfs/,0,,
10233,10233,"Creek Rd at Carindale Tennis Centre, stop 46",,-27.48752,153.099605,3,http://translink.com.au/stop/010233/gtfs/,0,,
10234,10234,"Creek Rd at Fursden Road, stop 47",,-27.485915,153.098672,3,http://translink.com.au/stop/010234/gtfs/,0,,
10235,10235,"Creek Rd near Foxmont Dr, stop 50",,-27.48029,153.095559,3,http://translink.com.au/stop/010235/gtfs/,0,,
10236,10236,Felstead St at Heflin Street,,-27.400825,152.995507,3,http://translink.com.au/stop/010236/gtfs/,0,,
10237,10237,Felstead St at Heflin Street,,-27.400674,152.995357,3,http://translink.com.au/stop/010237/gtfs/,0,,
10239,10239,Old Northern Rd at Hamilton Road,,-27.379145,152.980897,4,http://translink.com.au/stop/010239/gtfs/,0,,
1024,1024,Grand Ave at Grand Avenue Cascade,,-27.627806,152.966365,5,http://translink.com.au/stop/001024/gtfs/,0,,
10240,10240,"Oxford St at Wambool Street, stop 31",,-27.451234,153.058865,2,http://translink.com.au/stop/010240/gtfs/,0,,
10241,10241,Nottingham Rd at Avondale,,-27.628634,153.034699,5,http://translink.com.au/stop/010241/gtfs/,0,,
10244,10244,Nottingham Rd at Avondale,,-27.628514,153.033491,5,http://translink.com.au/stop/010244/gtfs/,0,,
10245,10245,"Indooroopilly Rd at Jack Cook Park, stop 18/19",,-27.494259,152.990764,2,http://translink.com.au/stop/010245/gtfs/,0,,
10246,10246,"Indooroopilly Rd at Jack Cook Park, stop 18/19",,-27.493965,152.990954,2,http://translink.com.au/stop/010246/gtfs/,0,,
10249,10249,"Arnica Cr at Mantias Street, stop 56",,-27.306492,153.019112,5,http://translink.com.au/stop/010249/gtfs/,0,,
10250,10250,"Arnica Cr near Korina St, stop 57",,-27.305887,153.016431,5,http://translink.com.au/stop/010250/gtfs/,0,,
10251,10251,"Coronation Dr at Chasely Street, stop 8",,-27.477925,153.000098,2,http://translink.com.au/stop/010251/gtfs/,0,,
10252,10252,Felstead St at Sizer Street,,-27.400581,152.993878,3,http://translink.com.au/stop/010252/gtfs/,0,,
10253,10253,Felstead St at Sizer Street,,-27.400439,152.993788,3,http://translink.com.au/stop/010253/gtfs/,0,,
10254,10254,England Rd near Pylara Cr,,-27.394099,152.932544,4,http://translink.com.au/stop/010254/gtfs/,0,,
10256,10256,Dorville Rd at Dorville North,,-27.346523,153.022243,4,http://translink.com.au/stop/010256/gtfs/,0,,
10258,10258,Dorville Rd at Denver East,,-27.351794,153.021355,4,http://translink.com.au/stop/010258/gtfs/,0,,
10259,10259,Dorville Rd at Denver East,,-27.350819,153.021421,4,http://translink.com.au/stop/010259/gtfs/,0,,
1026,1026,Grand Ave at Grand Avenue Cascade,,-27.627967,152.965641,5,http://translink.com.au/stop/001026/gtfs/,0,,
10260,10260,"Juliette St at Baron Street, stop 18",,-27.504483,153.041201,2,http://translink.com.au/stop/010260/gtfs/,0,,
10261,10261,"Alderwood St at Benton Street, stop 67",,-27.590389,153.019507,4,http://translink.com.au/stop/010261/gtfs/,0,,
10262,10262,"Chatsworth Rd at Rossmore Ave, stop 32",,-27.504762,153.064867,2,http://translink.com.au/stop/010262/gtfs/,0,,
1027,1027,"Alderwood St at Benton Street, stop 67",,-27.590498,153.019496,4,http://translink.com.au/stop/001027/gtfs/,0,,
10270,10270,"Samford Rd at Alderley Junction, stop 26",,-27.425292,153.000447,2,http://translink.com.au/stop/010270/gtfs/,0,,
10271,10271,"Samford Rd at Musgrave Terrace, stop 27",,-27.424411,152.99839,2,http://translink.com.au/stop/010271/gtfs/,0,,
10272,10272,"Samford Rd at Camborne Street, stop 28",,-27.423746,152.995656,2,http://translink.com.au/stop/010272/gtfs/,0,,
10273,10273,"Samford Rd at Bond Street, stop 29",,-27.423071,152.992514,2,http://translink.com.au/stop/010273/gtfs/,0,,
10274,10274,Gympie Rd near Mecklem St,,-27.310379,152.990739,5,http://translink.com.au/stop/010274/gtfs/,0,,
10275,10275,Gympie Rd near Mecklem St,,-27.310842,152.991172,5,,0,,
10276,10276,South Pine Rd near Mott St,,-27.313642,152.989,5,http://translink.com.au/stop/010276/gtfs/,0,,
10277,10277,South Pine Rd near station St,,-27.312393,152.990364,5,http://translink.com.au/stop/010277/gtfs/,0,,
10278,10278,South Pine Rd near Deakin St,,-27.325215,152.987129,5,http://translink.com.au/stop/010278/gtfs/,0,,
10279,10279,South Pine Rd near Hinkler Ct,,-27.316906,152.988418,5,http://translink.com.au/stop/010279/gtfs/,0,,
1028,1028,"Hampden St at St Ledger, stop 29",,-27.428979,153.075796,2,http://translink.com.au/stop/001028/gtfs/,0,,
10280,10280,South Pine Rd near Kremzow Rd,,-27.317505,152.988475,5,http://translink.com.au/stop/010280/gtfs/,0,,
10281,10281,South Pine Rd near Leitchs Rd,,-27.32642,152.979271,5,http://translink.com.au/stop/010281/gtfs/,0,,
10282,10282,South Pine Rd near Leitchs Rd,,-27.326591,152.978664,5,http://translink.com.au/stop/010282/gtfs/,0,,
10283,10283,Strathpine Rd at Adair Street,,-27.316742,153.005888,5,http://translink.com.au/stop/010283/gtfs/,0,,
10284,10284,Strathpine Rd near Bald Hills Rd,,-27.317246,153.00923,5,http://translink.com.au/stop/010284/gtfs/,0,,
10285,10285,Hoyland St near Kluver St,,-27.316976,153.016549,5,http://translink.com.au/stop/010285/gtfs/,0,,
10286,10286,Hoyland St near Dresden St,,-27.317362,153.016446,5,http://translink.com.au/stop/010286/gtfs/,0,,
10287,10287,Beams Rd at St Flannans,,-27.350181,153.038735,4,http://translink.com.au/stop/010287/gtfs/,0,,
10288,10288,"Hyde Rd at Rome Street North, stop 27",,-27.510793,153.010575,2,http://translink.com.au/stop/010288/gtfs/,0,,
10289,10289,Castle St near Seabrook St,,-27.403864,153.032501,3,http://translink.com.au/stop/010289/gtfs/,0,,
1029,1029,Battersby St near Victory St,,-27.354094,153.039921,4,http://translink.com.au/stop/001029/gtfs/,0,,
10296,10296,Keong Rd near Seligan St,,-27.348284,152.977226,4,http://translink.com.au/stop/010296/gtfs/,0,,
10297,10297,Keong Rd near Malvern Rd,,-27.34989,152.976938,4,http://translink.com.au/stop/010297/gtfs/,0,,
10298,10298,"Strathpine Shopping Centre, stop D",,-27.307812,152.993511,5,http://translink.com.au/stop/010298/gtfs/,0,place_wesstr,D
10299,10299,Mawson St at Oates Street,,-27.401248,153.023877,3,http://translink.com.au/stop/010299/gtfs/,0,,
103,103,William Street stop 103 at Commissariat/Casino,,-27.472986,153.024366,1,http://translink.com.au/stop/000103/gtfs/,0,,
1030,1030,"Nudgee Rd at Lilley Street, stop 34",,-27.425245,153.072665,2,http://translink.com.au/stop/001030/gtfs/,0,,
10302,10302,"Wishart Rd near Elkana Pl, stop 76",,-27.548349,153.099875,3,http://translink.com.au/stop/010302/gtfs/,0,,
10303,10303,"Beaudesert Rd at Moorooka South, stop 38",,-27.544712,153.020033,3,http://translink.com.au/stop/010303/gtfs/,0,,
10304,10304,"Wishart Rd near Elkana Pl, stop 76",,-27.548466,153.09993,3,http://translink.com.au/stop/010304/gtfs/,0,,
10305,10305,Dawson Pde near Link Rd,,-27.407642,152.962107,3,http://translink.com.au/stop/010305/gtfs/,0,,
10306,10306,Troughton Rd at QEII Hospital,,-27.559505,153.050624,3/4,http://translink.com.au/stop/010306/gtfs/,0,,
10307,10307,"Delavan St at Delavan Street Park, stop 85",,-27.561427,153.09648,3,http://translink.com.au/stop/010307/gtfs/,0,,
10308,10308,Sydney St at Llewellyn Street,,-27.472553,153.044225,2,http://translink.com.au/stop/010308/gtfs/,0,,
10309,10309,"Logan Rd at Bardsley Avenue, stop 20",,-27.505209,153.048783,2,http://translink.com.au/stop/010309/gtfs/,0,,
1031,1031,"Nudgee Rd near Lilley St, stop 34",,-27.425026,153.072864,2,http://translink.com.au/stop/001031/gtfs/,0,,
10310,10310,"Logan Rd at Mt Gravatt Corner, stop 44",,-27.558713,153.080741,3,http://translink.com.au/stop/010310/gtfs/,0,,
10311,10311,Dawson Pde at Grovely station,,-27.404816,152.9618,3,http://translink.com.au/stop/010311/gtfs/,0,,
10313,10313,"Newman Ave at Kelsey Street, stop 35",,-27.497859,153.069195,2,http://translink.com.au/stop/010313/gtfs/,0,,
10314,10314,"Troughton Rd at QEII Hospital, stop 37",,-27.559921,153.050402,3/4,http://translink.com.au/stop/010314/gtfs/,0,,
10315,10315,"Wemvern St near Sunnydale St, stop 74",,-27.547789,153.089608,3,http://translink.com.au/stop/010315/gtfs/,0,,
10316,10316,"York St near Prince St, stop 29",,-27.495156,152.977723,2,http://translink.com.au/stop/010316/gtfs/,0,,
10318,10318,Elystan Rd near Mark St,,-27.471632,153.04902,2,http://translink.com.au/stop/010318/gtfs/,0,,
10320,10320,"Kingsholme St at Villiers Street, stop 18",,-27.461935,153.049498,2,http://translink.com.au/stop/010320/gtfs/,0,,
10322,10322,"Soudan St near Bent St, stop 24",,-27.484285,152.980125,2,http://translink.com.au/stop/010322/gtfs/,0,,
10324,10324,"Exmouth St near Camp St, stop 26",,-27.484734,152.977131,2,http://translink.com.au/stop/010324/gtfs/,0,,
10325,10325,"James St near Arthur St, stop 9",,-27.457563,153.04107,1,http://translink.com.au/stop/010325/gtfs/,0,,
10326,10326,"Compton Rd at Piccadilly Way, stop 28",,-27.612198,153.072993,5,http://translink.com.au/stop/010326/gtfs/,0,,
10327,10327,"Kerry Rd at Beatty Rd, stop 52",,-27.571551,153.015036,4,http://translink.com.au/stop/010327/gtfs/,0,,
10328,10328,"Kerry Rd at Beatty Rd, stop 52",,-27.571423,153.014931,4,http://translink.com.au/stop/010328/gtfs/,0,,
1033,1033,Norris Rd near Barbour Rd,,-27.322829,153.026712,5,http://translink.com.au/stop/001033/gtfs/,0,,
10330,10330,"Merthyr Rd at Hawthorne Street, stop 13",,-27.463393,153.049733,2,http://translink.com.au/stop/010330/gtfs/,0,,
10331,10331,"Macquarie St at Saratoga, stop 13A",,-27.461113,153.050037,2,http://translink.com.au/stop/010331/gtfs/,0,,
10332,10332,"Merthyr Rd at Hawthorne Street, stop 13",,-27.46333,153.049984,2,http://translink.com.au/stop/010332/gtfs/,0,,
10334,10334,Strathmore St near Connolly St,,-27.403461,153.0276,3,http://translink.com.au/stop/010334/gtfs/,0,,
10335,10335,"Logan Rd at Raff Ave, stop 25",,-27.513511,153.054424,2,http://translink.com.au/stop/010335/gtfs/,0,,
10336,10336,"Cole St near Elfreda St, stop 27",,-27.428508,152.995632,2,http://translink.com.au/stop/010336/gtfs/,0,,
10337,10337,"Wattle St near Mawson St, stop 35",,-27.400867,153.019958,3,http://translink.com.au/stop/010337/gtfs/,0,,
10338,10338,"Cole St near Hilda St, stop 27",,-27.428407,152.995528,2,http://translink.com.au/stop/010338/gtfs/,0,,
10339,10339,Scott St at Chisholm Street,,-27.402326,153.020815,3,http://translink.com.au/stop/010339/gtfs/,0,,
1034,1034,Norris Rd near Barbour Rd,,-27.323259,153.026776,5,http://translink.com.au/stop/001034/gtfs/,0,,
10340,10340,Scott St at Chisholm Street,,-27.402491,153.021184,3,http://translink.com.au/stop/010340/gtfs/,0,,
10341,10341,"Logan Rd at CB Mott Park, stop 26",,-27.515304,153.056685,2,http://translink.com.au/stop/010341/gtfs/,0,,
10342,10342,"Cole St at Cole - Lloyd, stop 28",,-27.426875,152.995934,2,http://translink.com.au/stop/010342/gtfs/,0,,
10343,10343,Kingsholme St at Hastings Street,,-27.461183,153.048741,2,http://translink.com.au/stop/010343/gtfs/,0,,
10344,10344,"Cole St at Cole - Lloyd, stop 28",,-27.426864,152.995813,2,http://translink.com.au/stop/010344/gtfs/,0,,
10346,10346,"Holland Rd at Greenmount Avenue, stop 45",,-27.517091,153.06936,2/3,http://translink.com.au/stop/010346/gtfs/,0,,
10347,10347,"Elgar St at Rowton Street, stop 47",,-27.520203,153.072084,3,http://translink.com.au/stop/010347/gtfs/,0,,
10349,10349,"Elgar St near Olroy St, stop 47a",,-27.521005,153.070803,3,http://translink.com.au/stop/010349/gtfs/,0,,
1035,1035,Wallace St near Farnell St,,-27.38913,153.027166,3,http://translink.com.au/stop/001035/gtfs/,0,,
10351,10351,Harcourt St at Hough Lane,,-27.454457,153.045954,1/2,http://translink.com.au/stop/010351/gtfs/,0,,
10352,10352,Harcourt St at Hough Lane,,-27.455284,153.044979,1/2,http://translink.com.au/stop/010352/gtfs/,0,,
10354,10354,"Seville Rd at Seville Shops, stop 48",,-27.521385,153.074012,3,http://translink.com.au/stop/010354/gtfs/,0,,
10355,10355,"Osborne Rd at Osborne North, stop 51",,-27.402251,152.979155,3,http://translink.com.au/stop/010355/gtfs/,0,,
10356,10356,"Cradock St at Mar Street, stop 49",,-27.523064,153.075965,3,http://translink.com.au/stop/010356/gtfs/,0,,
10358,10358,"Glindemann Dr near Seville Rd, stop 47b",,-27.522808,153.070971,3,http://translink.com.au/stop/010358/gtfs/,0,,
10359,10359,"Rainworth Rd at Norm Buchan Park East, stop 12",,-27.465642,152.991736,2,http://translink.com.au/stop/010359/gtfs/,0,,
1036,1036,Battersby St near Birdwood St,,-27.35434,153.040856,4,http://translink.com.au/stop/001036/gtfs/,0,,
10360,10360,"Glindemann Dr near Seville Rd, stop 47b",,-27.522831,153.071139,3,http://translink.com.au/stop/010360/gtfs/,0,,
10362,10362,"Seville Rd near Glindemann Dr, stop 47c",,-27.522817,153.071953,3,http://translink.com.au/stop/010362/gtfs/,0,,
10363,10363,Victoria Park Rd at QUT Victoria Park Rd,,-27.452014,153.016081,2,http://translink.com.au/stop/010363/gtfs/,0,,
10364,10364,"Seville Rd near Dobbie St, stop 47c",,-27.522644,153.072017,3,http://translink.com.au/stop/010364/gtfs/,0,,
10366,10366,"Kessels Rd at Cremin Street, stop 60/45",,-27.560331,153.080316,3,http://translink.com.au/stop/010366/gtfs/,0,,
10367,10367,"Kessels Rd at Cremin Street, stop 45/60",,-27.560243,153.079722,3/4,http://translink.com.au/stop/010367/gtfs/,0,,
10368,10368,"Logan Rd at St Bernard, stop 42",,-27.553968,153.079725,3,http://translink.com.au/stop/010368/gtfs/,0,,
10369,10369,"Compton Rd at Piccadilly Way, stop 28",,-27.611986,153.073503,5,http://translink.com.au/stop/010369/gtfs/,0,,
1037,1037,"Upper Lancaster Rd near Wren Street, stop 25",,-27.430105,153.057404,2,http://translink.com.au/stop/001037/gtfs/,0,,
10370,10370,"Elgar St near Olroy St, stop 47a",,-27.521158,153.070353,3,http://translink.com.au/stop/010370/gtfs/,0,,
10371,10371,"Upper Lancaster Rd near Wren Street, stop 25",,-27.430224,153.057326,2,http://translink.com.au/stop/010371/gtfs/,0,,
10372,10372,"Holland Rd at Greenmount Avenue, stop 45",,-27.517006,153.06976,2/3,http://translink.com.au/stop/010372/gtfs/,0,,
10373,10373,Dawson Pde near Casey St,,-27.401056,152.961319,3,http://translink.com.au/stop/010373/gtfs/,0,,
10374,10374,"Moggill Rd at Bredden Street, stop 32",,-27.50816,152.952272,3,http://translink.com.au/stop/010374/gtfs/,0,,
10375,10375,Dawson Pde near Madsen St,,-27.402725,152.961675,3,http://translink.com.au/stop/010375/gtfs/,0,,
10376,10376,"Moggill Rd at Marshall Lane, stop 33",,-27.507521,152.950016,3,http://translink.com.au/stop/010376/gtfs/,0,,
10377,10377,"Marshall Lane near Gilruth Rd, stop 36",,-27.513475,152.946793,3,http://translink.com.au/stop/010377/gtfs/,0,,
10378,10378,Moggill Rd at Rafting Ground Park,,-27.520362,152.922767,4,http://translink.com.au/stop/010378/gtfs/,0,,
10379,10379,"Gilliat St near Camoola St, stop 36b",,-27.412563,152.945302,3,http://translink.com.au/stop/010379/gtfs/,0,,
10380,10380,"Lanark St near Kilkivan Ave, stop 39a",,-27.512468,152.93265,3,http://translink.com.au/stop/010380/gtfs/,0,,
10381,10381,"Davies Rd near Coolibah St, stop 33",,-27.454754,152.975708,2,http://translink.com.au/stop/010381/gtfs/,0,,
10383,10383,"Arthur Tce near Dean St, stop 15A",,-27.450517,152.994264,2,http://translink.com.au/stop/010383/gtfs/,0,,
10384,10384,"Brisbane St at Kayes Rocks, stop 15",,-27.488733,152.993903,2,http://translink.com.au/stop/010384/gtfs/,0,,
10385,10385,"Brookfield Rd at Kenmore West, stop 37",,-27.506013,152.933696,3,http://translink.com.au/stop/010385/gtfs/,0,,
10386,10386,Ipswich Rd at Clifton Hill near Beaudesert Rd,,-27.525557,153.022598,2,http://translink.com.au/stop/010386/gtfs/,0,,
10387,10387,Dawson Pde at Crampton St,,-27.410908,152.962524,3,http://translink.com.au/stop/010387/gtfs/,0,,
10388,10388,"Cavendish Rd at Shire Street, stop 27/28",,-27.496449,153.060535,2,http://translink.com.au/stop/010388/gtfs/,0,,
10389,10389,Cavendish Rd near Kanumbra St,,-27.505963,153.062257,2,http://translink.com.au/stop/010389/gtfs/,0,,
1039,1039,"Montague Rd near Boundary St, stop 4",,-27.472301,153.013202,1,http://translink.com.au/stop/001039/gtfs/,0,,
10390,10390,"Cavendish Rd at Loreto College, stop 35",,-27.50935,153.064067,2,http://translink.com.au/stop/010390/gtfs/,0,,
10391,10391,Gympie Rd near Bald Hills Rd,,-27.321863,153.009095,5,http://translink.com.au/stop/010391/gtfs/,0,,
10392,10392,"Cavendish Rd at Arlington Street, stop 37",,-27.511741,153.066316,2,http://translink.com.au/stop/010392/gtfs/,0,,
10393,10393,"Cavendish Rd at Stoneleigh Street, stop 38",,-27.512769,153.069986,2,http://translink.com.au/stop/010393/gtfs/,0,,
10394,10394,"Cavendish Rd at Cavendish Rd Reservoir, stop 40",,-27.515466,153.072894,2/3,http://translink.com.au/stop/010394/gtfs/,0,,
10395,10395,"Cavendish Rd at Crystal Street, stop 50",,-27.518807,153.078518,3,http://translink.com.au/stop/010395/gtfs/,0,,
10396,10396,"Ipswich Rd at Moorooka, stop 38/39",,-27.534291,153.015074,3,http://translink.com.au/stop/010396/gtfs/,0,,
10397,10397,"Glenlyon Dr near Marist Lane, stop 39C",,-27.445143,152.979999,2,http://translink.com.au/stop/010397/gtfs/,0,,
10398,10398,"Glenlyon Dr near Cypress Dr, stop 39c",,-27.445431,152.980032,2,http://translink.com.au/stop/010398/gtfs/,0,,
10399,10399,"Thomas St near Oxley Rd, stop 55",,-27.53013,152.983353,3,http://translink.com.au/stop/010399/gtfs/,0,,
104,104,William Street stop 104 near Elizabeth St,,-27.472074,153.023265,1,http://translink.com.au/stop/000104/gtfs/,0,,
10400,10400,"Thomas St near Oxley Rd, stop 55",,-27.52997,152.983501,3,http://translink.com.au/stop/010400/gtfs/,0,,
10401,10401,Archdale Rd near Ballylin St,,-27.401122,152.931482,4,http://translink.com.au/stop/010401/gtfs/,0,,
10404,10404,"Nagle St near Pickworth St, stop 79",,-27.558246,153.075737,3/4,http://translink.com.au/stop/010404/gtfs/,0,,
10405,10405,"Tora St near Ilya St, stop 77",,-27.556472,153.071096,3/4,http://translink.com.au/stop/010405/gtfs/,0,,
10406,10406,"Delavan St at Wolcott Street, stop 86",,-27.561696,153.093255,3,http://translink.com.au/stop/010406/gtfs/,0,,
10407,10407,"Delavan St at Wolcott Street, stop 86",,-27.561583,153.093236,3,http://translink.com.au/stop/010407/gtfs/,0,,
10408,10408,"Delavan St at Delavan Street Park, stop 85",,-27.561268,153.09652,3,http://translink.com.au/stop/010408/gtfs/,0,,
10409,10409,"Cavendish Rd at York Street, stop 29",,-27.49859,153.061705,2,http://translink.com.au/stop/010409/gtfs/,0,,
1041,1041,"Montague Rd near Brereton St, stop 5",,-27.474026,153.011385,1,http://translink.com.au/stop/001041/gtfs/,0,,
10410,10410,"Dawson Rd at Brockhouse Street, stop 77",,-27.553974,153.086976,3,http://translink.com.au/stop/010410/gtfs/,0,,
10411,10411,"Logan Rd at Bardsley Avenue, stop 20",,-27.505208,153.048331,2,http://translink.com.au/stop/010411/gtfs/,0,,
10412,10412,"Hillgrove St at Kingsway Street, stop 41",,-27.544358,153.087519,3,http://translink.com.au/stop/010412/gtfs/,0,,
10413,10413,"Wishart Rd at Pinner Street, stop 43",,-27.546712,153.088959,3,http://translink.com.au/stop/010413/gtfs/,0,,
10414,10414,"Tryon St at Mascar Street, stop 81",,-27.559157,153.084706,3,http://translink.com.au/stop/010414/gtfs/,0,,
10415,10415,Satinay St at Samford - Blackbutt,,-27.414021,152.955433,3,http://translink.com.au/stop/010415/gtfs/,0,,
10416,10416,"Windsor Rd at Windsor - Prospect, stop 9",,-27.452119,153.006995,2,http://translink.com.au/stop/010416/gtfs/,0,,
10417,10417,"Windsor Rd near Errard St, stop 12",,-27.446478,153.006252,2,http://translink.com.au/stop/010417/gtfs/,0,,
10418,10418,"Ashgrove Ave near Bott St, stop 25",,-27.442376,152.995539,2,http://translink.com.au/stop/010418/gtfs/,0,,
10419,10419,"Victoria St near Wardell St, stop 33",,-27.434562,152.987965,2,http://translink.com.au/stop/010419/gtfs/,0,,
10420,10420,"Arinya Rd near Mirrabooka Rd, stop 39",,-27.440478,152.983624,2,http://translink.com.au/stop/010420/gtfs/,0,,
10421,10421,"Kingsford Smith Dr at Seymour Rd, stop 28",,-27.438254,153.067883,2,http://translink.com.au/stop/010421/gtfs/,0,,
10422,10422,Dawson Pde near Crampton St,,-27.41099,152.962677,3,http://translink.com.au/stop/010422/gtfs/,0,,
10423,10423,"Kingsford Smith Dr at Remora Road, stop 29",,-27.437751,153.070113,2,http://translink.com.au/stop/010423/gtfs/,0,,
10424,10424,"Kingsford Smith Dr at Harbour View, stop 28/27",,-27.438696,153.066833,2,http://translink.com.au/stop/010424/gtfs/,0,,
10425,10425,"Agnew St near Walker Ave, stop 42",,-27.476662,153.069018,2,http://translink.com.au/stop/010425/gtfs/,0,,
10426,10426,"Cornwall St at Rialto Street, stop 19a",,-27.503623,153.050916,2,http://translink.com.au/stop/010426/gtfs/,0,,
10427,10427,"Cornwall St at Darreen St, stop 19",,-27.503087,153.047706,2,http://translink.com.au/stop/010427/gtfs/,0,,
10428,10428,"Kadumba St near Eversley Tce, stop 23",,-27.515542,153.015386,2,http://translink.com.au/stop/010428/gtfs/,0,,
10429,10429,"Tennyson Memorial Ave at Brisbane Golf, stop 36",,-27.526926,153.00947,3,http://translink.com.au/stop/010429/gtfs/,0,,
1043,1043,"Montague Rd near Cameron St, stop 6",,-27.475406,153.009845,1/2,http://translink.com.au/stop/001043/gtfs/,0,,
10430,10430,"Softstone St near King Arthur Tce, stop 38",,-27.524894,153.004204,3,http://translink.com.au/stop/010430/gtfs/,0,,
10431,10431,"Wharf St near Bridge St, stop 52",,-27.510183,152.974861,3,http://translink.com.au/stop/010431/gtfs/,0,,
10432,10432,"Hawken Dr at Tarcoola Street, stop 27",,-27.504585,153.000393,2,http://translink.com.au/stop/010432/gtfs/,0,,
10433,10433,"Wharf St near Bridge St, stop 52",,-27.510196,152.975053,3,http://translink.com.au/stop/010433/gtfs/,0,,
10435,10435,"Victoria St near Wardell St, stop 33",,-27.434463,152.988042,2,http://translink.com.au/stop/010435/gtfs/,0,,
10437,10437,"Beaudesert Rd at Stimpson Park, stop 29",,-27.526054,153.022998,2,http://translink.com.au/stop/010437/gtfs/,0,,
10438,10438,"Evans Rd at Pentex Street, stop 43",,-27.544907,153.030805,3,http://translink.com.au/stop/010438/gtfs/,0,,
10439,10439,"Webster Rd at Lindley Street, stop 29",,-27.41399,153.016356,2,http://translink.com.au/stop/010439/gtfs/,0,,
1044,1044,"Montague Rd at Mollison Street, stop 6",,-27.476066,153.008904,1/2,http://translink.com.au/stop/001044/gtfs/,0,,
10440,10440,Griffith University stop A,,-27.554038,153.053576,3/4,http://translink.com.au/stop/010440/gtfs/,0,,
10441,10441,"Evans Rd at Pentex Street, stop 43",,-27.545278,153.032437,3,http://translink.com.au/stop/010441/gtfs/,0,,
10444,10444,"Endiandra St near Satinash St, stop 87",,-27.615712,153.032119,5,http://translink.com.au/stop/010444/gtfs/,0,,
10445,10445,"Algester Rd at Crestone Street, stop 90/89",,-27.623,153.031444,5,http://translink.com.au/stop/010445/gtfs/,0,,
10446,10446,"Tufnell Rd at Earnshaw Road, stop 32",,-27.379112,153.080867,4,http://translink.com.au/stop/010446/gtfs/,0,,
10447,10447,Remora Rd at Seymour St,,-27.439345,153.070452,2,http://translink.com.au/stop/010447/gtfs/,0,,
10448,10448,"Algester Rd at Crestone Street, stop 90/89",,-27.622835,153.03138,5,http://translink.com.au/stop/010448/gtfs/,0,,
1045,1045,"Montague Rd at Donkin Street, stop 7",,-27.476864,153.00821,2,http://translink.com.au/stop/001045/gtfs/,0,,
10451,10451,"Beaudesert Rd at Boyland Avenue, stop 42/41",,-27.563743,153.022783,4,http://translink.com.au/stop/010451/gtfs/,0,,
10453,10453,"Kerry Rd near Beaudesert Rd, stop 51",,-27.572781,153.023796,4,http://translink.com.au/stop/010453/gtfs/,0,,
10459,10459,Keong Rd near Crofty St,,-27.351434,152.976661,4,http://translink.com.au/stop/010459/gtfs/,0,,
1046,1046,"Montague Rd at Donkin Street, stop 7",,-27.476702,153.008191,2,http://translink.com.au/stop/001046/gtfs/,0,,
10460,10460,"Kadumba St near Eversley Tce, stop 23",,-27.515571,153.014721,2,http://translink.com.au/stop/010460/gtfs/,0,,
10461,10461,"Newman Rd at Geebung, stop 51",,-27.370369,153.047588,4,http://translink.com.au/stop/010461/gtfs/,0,,
10463,10463,"Deagon St near Brisbane St, stop 37",,-27.313792,153.063205,5,http://translink.com.au/stop/010463/gtfs/,0,,
10464,10464,"Winslow St at Rowe Tce, stop 67/68",,-27.569544,152.957583,4,http://translink.com.au/stop/010464/gtfs/,0,,
10465,10465,"Winslow St at Rowe Tce, stop 67/68",,-27.569609,152.957844,4,http://translink.com.au/stop/010465/gtfs/,0,,
10467,10467,"Northbrooke St near Allamanda Ct, stop 59",,-27.543988,152.947992,4,http://translink.com.au/stop/010467/gtfs/,0,,
10468,10468,"Northbrook St at Cityview Rd, stop 59",,-27.544914,152.948262,4,http://translink.com.au/stop/010468/gtfs/,0,,
10469,10469,"Oldfield Rd at Oldfield Shops, stop 57a",,-27.544562,152.951304,4,http://translink.com.au/stop/010469/gtfs/,0,,
1047,1047,"Montague Rd at Davies Park, stop 8",,-27.478641,153.006306,2,http://translink.com.au/stop/001047/gtfs/,0,,
10470,10470,"Oldfield Rd at Oldfield Shops, stop 57a",,-27.544325,152.951316,4,http://translink.com.au/stop/010470/gtfs/,0,,
10472,10472,"Kirby Rd near Zillmere Rd, stop 52a",,-27.35828,153.02771,4,http://translink.com.au/stop/010472/gtfs/,0,,
10474,10474,Boundary Street Hail 'n' Ride,,-27.478904,153.012515,1,http://translink.com.au/stop/010474/gtfs/,0,,
10475,10475,"Stanley Rd at Lunga Street, stop 39/40",,-27.488099,153.088123,2/3,http://translink.com.au/stop/010475/gtfs/,0,,
10476,10476,Ironbark Rd near Birchley St,,-27.495278,152.942218,3,http://translink.com.au/stop/010476/gtfs/,0,,
10477,10477,Keong Rd near Rafter Ave,,-27.354053,152.976196,4,http://translink.com.au/stop/010477/gtfs/,0,,
10478,10478,Keong Rd near Dawn Rd,,-27.358135,152.974998,4,http://translink.com.au/stop/010478/gtfs/,0,,
10479,10479,Boundary Street Hail 'n' Ride,,-27.487712,153.010717,2,http://translink.com.au/stop/010479/gtfs/,0,,
1048,1048,"Montague Rd at Davies Park, stop 8",,-27.478443,153.00627,2,http://translink.com.au/stop/001048/gtfs/,0,,
10480,10480,Boundary Street Hail 'n' Ride,,-27.48617,153.011009,2,http://translink.com.au/stop/010480/gtfs/,0,,
10481,10481,Boundary Street Hail 'n' Ride,,-27.485213,153.01119,2,http://translink.com.au/stop/010481/gtfs/,0,,
10482,10482,Boundary Street Hail 'n' Ride,,-27.483559,153.011491,2,http://translink.com.au/stop/010482/gtfs/,0,,
10483,10483,Brighton Road Hail 'n' Ride,,-27.483713,153.015412,2,http://translink.com.au/stop/010483/gtfs/,0,,
10484,10484,Keong Rd near Hampshire Tce,,-27.3599,152.973052,4,http://translink.com.au/stop/010484/gtfs/,0,,
10485,10485,Webster Rd at Stafford City,,-27.413916,153.016368,2,http://translink.com.au/stop/010485/gtfs/,0,,
10486,10486,"Dornoch Tce near Gladstone Rd, stop 21a",,-27.487328,153.01841,2,http://translink.com.au/stop/010486/gtfs/,0,,
10487,10487,"Dornoch Tce near Hampstead Road, stop 21",,-27.487036,153.016652,2,http://translink.com.au/stop/010487/gtfs/,0,,
10488,10488,Dornoch Terrace Hail 'n' Ride,,-27.487118,153.00803,2,http://translink.com.au/stop/010488/gtfs/,0,,
10489,10489,Edmondstone Street Hail 'n' Ride,,-27.479395,153.015465,1,http://translink.com.au/stop/010489/gtfs/,0,,
1049,1049,"Montague Rd at Ashington Street, stop 9",,-27.480984,153.004817,2,http://translink.com.au/stop/001049/gtfs/,0,,
10490,10490,Edmondstone Street Hail 'n' Ride,,-27.477252,153.013992,1,http://translink.com.au/stop/010490/gtfs/,0,,
10491,10491,Edmondstone Street Hail 'n' Ride,,-27.48117,153.016684,1,http://translink.com.au/stop/010491/gtfs/,0,,
10492,10492,Brendale St near Currajon St,,-27.326135,152.966648,5,http://translink.com.au/stop/010492/gtfs/,0,,
10493,10493,"Dornoch Tce at Hampstead Road, stop 21",,-27.487223,153.015723,2,http://translink.com.au/stop/010493/gtfs/,0,,
10494,10494,Hampstead Road Hail 'n' Ride,,-27.485604,153.016115,2,http://translink.com.au/stop/010494/gtfs/,0,,
10495,10495,Hampstead Road Hail 'n' Ride,,-27.484399,153.016515,2,http://translink.com.au/stop/010495/gtfs/,0,,
10497,10497,"Musgrave Rd near Moggill Rd, stop 24A",,-27.499129,152.972111,2/3,http://translink.com.au/stop/010497/gtfs/,0,,
10498,10498,Ironbark Rd near Birchley St,,-27.495254,152.942357,3,http://translink.com.au/stop/010498/gtfs/,0,,
10499,10499,Jane Street Hail 'n' Ride,,-27.47886,153.009555,2,http://translink.com.au/stop/010499/gtfs/,0,,
105,105,William Street stop 105 near Elizabeth St,,-27.472479,153.023865,1,http://translink.com.au/stop/000105/gtfs/,0,,
1050,1050,"Montague Rd at Ashington Street, stop 9",,-27.48092,153.004695,2,http://translink.com.au/stop/001050/gtfs/,0,,
10500,10500,Old Northern Rd at Chinook,,-27.383099,152.983424,3/4,http://translink.com.au/stop/010500/gtfs/,0,,
10501,10501,Patricks Rd near Leslie St,,-27.397132,152.956684,4,http://translink.com.au/stop/010501/gtfs/,0,,
10502,10502,Sussex Street Hail 'n' Ride,,-27.483064,153.012748,2,http://translink.com.au/stop/010502/gtfs/,0,,
10503,10503,Sussex Street Hail 'n' Ride,,-27.481665,153.013013,2,http://translink.com.au/stop/010503/gtfs/,0,,
10504,10504,Vulture Street Hail 'n' Ride,,-27.482155,153.019475,1/2,http://translink.com.au/stop/010504/gtfs/,0,,
10505,10505,Vulture Street Hail 'n' Ride,,-27.481004,153.012684,1/2,http://translink.com.au/stop/010505/gtfs/,0,,
10506,10506,Boundary Street Hail 'n' Ride,,-27.481997,153.011797,2,http://translink.com.au/stop/010506/gtfs/,0,,
10507,10507,Brighton Road Hail 'n' Ride,,-27.483418,153.013467,2,http://translink.com.au/stop/010507/gtfs/,0,,
10508,10508,"Chalk St near Challis Lane, stop 20",,-27.421601,153.035389,2,http://translink.com.au/stop/010508/gtfs/,0,,
10509,10509,"McLennan St near Chalk St, stop 19",,-27.422645,153.038075,2,http://translink.com.au/stop/010509/gtfs/,0,,
1051,1051,"Montague Rd near Victoria St, stop 10",,-27.48251,153.00381,2,http://translink.com.au/stop/001051/gtfs/,0,,
10510,10510,"McLennan St near Chalk St, stop 19",,-27.422483,153.038229,2,http://translink.com.au/stop/010510/gtfs/,0,,
10511,10511,"Denham St at Childs Street, stop 33",,-27.325845,153.042782,5,http://translink.com.au/stop/010511/gtfs/,0,,
10512,10512,"Stringybark Dr at Martindale Street, stop 47",,-27.374125,153.005762,4,http://translink.com.au/stop/010512/gtfs/,0,,
10513,10513,"McLennan St at Marne Street, stop 17",,-27.425279,153.037591,2,http://translink.com.au/stop/010513/gtfs/,0,,
10514,10514,"McLennan St at Marne Street, stop 17",,-27.425442,153.037685,2,http://translink.com.au/stop/010514/gtfs/,0,,
10515,10515,"Stanley Rd at Sage Street, stop 41",,-27.488524,153.091129,3,http://translink.com.au/stop/010515/gtfs/,0,,
10516,10516,"Tufnell Rd at Earnshaw Road, stop 32",,-27.379178,153.080746,4,http://translink.com.au/stop/010516/gtfs/,0,,
10517,10517,Keong Rd near Hampshire Tce,,-27.35943,152.973374,4,http://translink.com.au/stop/010517/gtfs/,0,,
10518,10518,Keong Rd near Dawn Rd,,-27.358356,152.974557,4,http://translink.com.au/stop/010518/gtfs/,0,,
10519,10519,Griffith University stop B,,-27.553767,153.054271,3/4,http://translink.com.au/stop/010519/gtfs/,0,,
1052,1052,"Montague Rd near Victoria St, stop 10",,-27.482327,153.003769,2,http://translink.com.au/stop/001052/gtfs/,0,,
10523,10523,"Cornwall St at Raby Street, stop 19b",,-27.503681,153.051961,2,http://translink.com.au/stop/010523/gtfs/,0,,
10524,10524,"Bapaume Rd at Dobbs Street, stop 63",,-27.53407,153.062067,3,http://translink.com.au/stop/010524/gtfs/,0,,
10526,10526,Wynnum Esp near Florence St,,-27.44166,153.175623,4,http://translink.com.au/stop/010526/gtfs/,0,,
10527,10527,"Logan Rd at Mt Gravatt Showgrounds, stop 38A",,-27.544386,153.081795,3,http://translink.com.au/stop/010527/gtfs/,0,,
10529,10529,"Scotts Rd at Winslow St, stop 66",,-27.570052,152.954089,4,http://translink.com.au/stop/010529/gtfs/,0,,
1053,1053,"Montague Rd at Gray Rd, stop 13",,-27.487249,153.000858,2,http://translink.com.au/stop/001053/gtfs/,0,,
10530,10530,"Kadumba St near Fairfield Rd, stop 22",,-27.515842,153.017523,2,http://translink.com.au/stop/010530/gtfs/,0,,
10533,10533,Handford Rd at Handford - Roghan,,-27.341945,153.041536,4,http://translink.com.au/stop/010533/gtfs/,0,,
10534,10534,Creek Rd at Greenmeadow,,-27.521695,153.096698,3,http://translink.com.au/stop/010534/gtfs/,0,,
10535,10535,John Street near Julie Rd,,-27.611994,152.934843,5,http://translink.com.au/stop/010535/gtfs/,0,,
10536,10536,Mt Gravatt Capalaba Rd at Agaton,,-27.555061,153.098121,3,http://translink.com.au/stop/010536/gtfs/,0,,
10537,10537,Ridgewood Rd at Ridgewood Heights,,-27.624362,153.027516,5,http://translink.com.au/stop/010537/gtfs/,0,,
10538,10538,Mt Gravatt Capalaba Rd at Ham Road South,,-27.55294,153.10287,3,http://translink.com.au/stop/010538/gtfs/,0,,
10539,10539,Hornibrook Hwy at Eventide,,-27.290303,153.062159,5,http://translink.com.au/stop/010539/gtfs/,0,,
1054,1054,"Montague Rd at Gray Rd, stop 13",,-27.487242,153.000701,2,http://translink.com.au/stop/001054/gtfs/,0,,
10540,10540,Hornibrook Hwy at Brighton Bayside Park,,-27.287539,153.06256,5,http://translink.com.au/stop/010540/gtfs/,0,,
10541,10541,Hornibrook Hwy at Eventide Aged Home,,-27.287674,153.062651,5,http://translink.com.au/stop/010541/gtfs/,0,,
10543,10543,John Street near Skepper St,,-27.612041,152.934978,5,http://translink.com.au/stop/010543/gtfs/,0,,
10544,10544,Beaconsfield Tce near Duke St,,-27.292756,153.062122,5,http://translink.com.au/stop/010544/gtfs/,0,,
10545,10545,Beaconsfield Tce near Princess St,,-27.296468,153.061714,5,http://translink.com.au/stop/010545/gtfs/,0,,
10546,10546,Beaconsfield Tce near Shepherd St,,-27.296567,153.061867,5,http://translink.com.au/stop/010546/gtfs/,0,,
10547,10547,Beaconsfield Tce near Seaview St,,-27.299955,153.061953,5,http://translink.com.au/stop/010547/gtfs/,0,,
10548,10548,Beaconsfield Tce near Seaview St,,-27.299583,153.062031,5,http://translink.com.au/stop/010548/gtfs/,0,,
10549,10549,Brighton Tce near Twelfth Ave,,-27.304133,153.06267,5,http://translink.com.au/stop/010549/gtfs/,0,,
1055,1055,"Montague Rd at Cordeaux Street, stop 30/14",,-27.488328,153.000018,2,http://translink.com.au/stop/001055/gtfs/,0,,
10550,10550,Beaconsfield Tce near Twelfth Ave,,-27.303383,153.06272,5,http://translink.com.au/stop/010550/gtfs/,0,,
10551,10551,Brighton Tce near Tenth Ave,,-27.307409,153.063814,5,http://translink.com.au/stop/010551/gtfs/,0,,
10552,10552,Brighton Rd near Tenth Ave,,-27.308339,153.063865,5,http://translink.com.au/stop/010552/gtfs/,0,,
10553,10553,Brighton Rd near Wakefield St,,-27.311923,153.06508,5,http://translink.com.au/stop/010553/gtfs/,0,,
10554,10554,Brighton Rd near Wakefield St,,-27.311444,153.065059,5,http://translink.com.au/stop/010554/gtfs/,0,,
10555,10555,David St at Stephen Street,,-27.611112,152.933829,5,http://translink.com.au/stop/010555/gtfs/,0,,
10556,10556,Muriel Ave at Stephen Street,,-27.610379,152.934278,5,http://translink.com.au/stop/010556/gtfs/,0,,
10557,10557,Wakefield St at Freemasons,,-27.312557,153.061421,5,http://translink.com.au/stop/010557/gtfs/,0,,
10558,10558,Wakefield St at Freemasons,,-27.312635,153.061639,5,http://translink.com.au/stop/010558/gtfs/,0,,
10559,10559,Baskerville St at Nashville School,,-27.307119,153.051589,5,http://translink.com.au/stop/010559/gtfs/,0,,
1056,1056,"Petrie Tce at Windmill Cafe, stop 3",,-27.46567,153.012496,1,http://translink.com.au/stop/001056/gtfs/,0,,
10560,10560,Baskerville St at Nashville School,,-27.307231,153.051908,5,http://translink.com.au/stop/010560/gtfs/,0,,
10561,10561,Baskerville St at Peace Park,,-27.309945,153.056119,5,http://translink.com.au/stop/010561/gtfs/,0,,
10562,10562,Baskerville St at Peace Park,,-27.310041,153.056063,5,http://translink.com.au/stop/010562/gtfs/,0,,
10563,10563,Craig St at Nashville,,-27.303218,153.047107,5,http://translink.com.au/stop/010563/gtfs/,0,,
10564,10564,Craig St at Nashville,,-27.303601,153.047396,5,http://translink.com.au/stop/010564/gtfs/,0,,
10565,10565,"Lascelles St at Brighton, stop 56a",,-27.297394,153.050035,5,http://translink.com.au/stop/010565/gtfs/,0,,
10566,10566,"North Rd at Brighton North, stop 62",,-27.293004,153.059142,5,http://translink.com.au/stop/010566/gtfs/,0,,
10567,10567,"North Rd at Bayview, stop 63",,-27.291523,153.061743,5,http://translink.com.au/stop/010567/gtfs/,0,,
10568,10568,North Rd at St Kieran,,-27.294353,153.054439,5,http://translink.com.au/stop/010568/gtfs/,0,,
10569,10569,North Rd at St Kieran,,-27.29448,153.05444,5,http://translink.com.au/stop/010569/gtfs/,0,,
1057,1057,"Hardgrave Rd at Ashington Street, stop 9a",,-27.480807,153.007193,2,http://translink.com.au/stop/001057/gtfs/,0,,
10571,10571,"Sandgate, stop 33",,-27.321527,153.068816,4/5,http://translink.com.au/stop/010571/gtfs/,0,,
10572,10572,Norris Rd at Bracken Ridge Plaza,,-27.330296,153.025364,5,http://translink.com.au/stop/010572/gtfs/,0,,
10574,10574,Faheys Rd W at Kingfisher,,-27.347855,152.959243,4,http://translink.com.au/stop/010574/gtfs/,0,,
10575,10575,Lemke Rd at Sandgate AFC Ground,,-27.336178,153.044659,4,http://translink.com.au/stop/010575/gtfs/,0,,
10577,10577,Waterford Rd at Carole Park Primary School,,-27.608009,152.933411,5,http://translink.com.au/stop/010577/gtfs/,0,,
10578,10578,Balcara Ave at Beams - Balcara,,-27.347737,153.027144,4,http://translink.com.au/stop/010578/gtfs/,0,,
1058,1058,"Jane St near Hardgrave Rd, stop 10",,-27.478515,153.007123,2,http://translink.com.au/stop/001058/gtfs/,0,,
10580,10580,"Strathpine Shopping Centre, stop A",,-27.307899,152.992834,5,http://translink.com.au/stop/010580/gtfs/,0,place_wesstr,A
10581,10581,Waterford Rd at Carole Park Primary School,,-27.608126,152.933343,5,http://translink.com.au/stop/010581/gtfs/,0,,
10582,10582,"Kingsley Pde near Kadumba St, stop 24A",,-27.515133,153.014117,2,http://translink.com.au/stop/010582/gtfs/,0,,
10584,10584,Faheys Rd W at Kingfisher,,-27.347943,152.958997,4,http://translink.com.au/stop/010584/gtfs/,0,,
10586,10586,"Kingsley Pde near Violet St, stop 24",,-27.514022,153.014321,2,http://translink.com.au/stop/010586/gtfs/,0,,
10587,10587,"Kingsley Pde near Violet St, stop 24",,-27.514202,153.014165,2,http://translink.com.au/stop/010587/gtfs/,0,,
10589,10589,Old Northern Rd near Albany Forest Dr,,-27.35688,152.969374,4,http://translink.com.au/stop/010589/gtfs/,0,,
1059,1059,"Hardgrave Rd near Vulture St, stop 9C",,-27.480263,153.007426,2,http://translink.com.au/stop/001059/gtfs/,0,,
10590,10590,"South Pine Rd at Rogers Pde W, stop 44",,-27.393963,152.977387,3,http://translink.com.au/stop/010590/gtfs/,0,,
10597,10597,"Piccadilly St at Haymarket Street, stop 48",,-27.372967,153.040103,4,http://translink.com.au/stop/010597/gtfs/,0,,
10598,10598,CLOSED UNTIL APR 2014 - Robinson Rd at Bassano St,,-27.367665,153.042904,4,,0,,
10599,10599,CLOSED UNTIL APR 2014 - Robinson Rd at Bassano St,,-27.367818,153.042955,4,,0,,
106,106,North Quay stop 106 near Herschel St,,-27.468033,153.018369,1,http://translink.com.au/stop/000106/gtfs/,0,,
1060,1060,"Vulture St at West End School, stop 9",,-27.480609,153.007635,2,http://translink.com.au/stop/001060/gtfs/,0,,
10600,10600,Elizabeth St at Kilkenny,,-27.588571,153.021367,4,http://translink.com.au/stop/010600/gtfs/,0,,
10601,10601,Elizabeth St at Kilkenny,,-27.588665,153.021261,4,http://translink.com.au/stop/010601/gtfs/,0,,
10604,10604,Taragon St near Chervil St,,-27.314684,153.013705,5,http://translink.com.au/stop/010604/gtfs/,0,,
10605,10605,"Coriander St near Kluver St, stop 60",,-27.316498,153.014735,5,http://translink.com.au/stop/010605/gtfs/,0,,
10606,10606,Coriander St near Kluver St,,-27.316813,153.014794,5,http://translink.com.au/stop/010606/gtfs/,0,,
10607,10607,Kluver St near Bracken Ridge Rd,,-27.306967,153.01326,5,http://translink.com.au/stop/010607/gtfs/,0,,
10608,10608,Kluver St near Bracken Ridge Rd,,-27.306871,153.013459,5,http://translink.com.au/stop/010608/gtfs/,0,,
10609,10609,"Arnica Cr near Korina St, stop 57",,-27.305818,153.016684,5,http://translink.com.au/stop/010609/gtfs/,0,,
1061,1061,"Vulture St at West End School, stop 9",,-27.480523,153.008333,2,http://translink.com.au/stop/001061/gtfs/,0,,
10610,10610,"Arnica Cr near Mantias Street, stop 56",,-27.306076,153.018309,5,http://translink.com.au/stop/010610/gtfs/,0,,
10611,10611,"Charlock Rd near Arnica Cr, stop 55",,-27.306917,153.019334,5,http://translink.com.au/stop/010611/gtfs/,0,,
10612,10612,Bracken Ridge Rd at Wetlands,,-27.309892,153.02104,5,http://translink.com.au/stop/010612/gtfs/,0,,
10613,10613,Bracken Ridge Rd at Wetlands,,-27.310139,153.021939,5,http://translink.com.au/stop/010613/gtfs/,0,,
10614,10614,Norris Rd at Bracken Ridge Plaza,,-27.330057,153.025551,5,http://translink.com.au/stop/010614/gtfs/,0,,
10615,10615,Phillips St near Tomah Rd,,-27.328309,153.040703,5,http://translink.com.au/stop/010615/gtfs/,0,,
10616,10616,Phillips St at Tomah Street,,-27.328441,153.040833,5,http://translink.com.au/stop/010616/gtfs/,0,,
10617,10617,Enbrook St near Appledore St,,-27.329282,153.038887,5,http://translink.com.au/stop/010617/gtfs/,0,,
10618,10618,Enbrook St near Appledore St,,-27.329241,153.03902,5,http://translink.com.au/stop/010618/gtfs/,0,,
10619,10619,Enbrook St near Mustang St,,-27.330559,153.036244,5,http://translink.com.au/stop/010619/gtfs/,0,,
1062,1062,"Vulture St at Cambridge Street, stop 8",,-27.48063,153.010155,2,http://translink.com.au/stop/001062/gtfs/,0,,
10620,10620,Enbrook St near Mustang St,,-27.330599,153.035845,5,http://translink.com.au/stop/010620/gtfs/,0,,
10621,10621,Mustang St near Telegraph Rd,,-27.331926,153.034399,5,http://translink.com.au/stop/010621/gtfs/,0,,
10622,10622,Mustang St near Telegraph Rd,,-27.332102,153.034478,5,http://translink.com.au/stop/010622/gtfs/,0,,
10623,10623,Telegraph Rd near Mustang St,,-27.33215,153.033055,5,http://translink.com.au/stop/010623/gtfs/,0,,
10624,10624,Telegraph Rd near Mustang St,,-27.332291,153.033018,5,http://translink.com.au/stop/010624/gtfs/,0,,
10625,10625,Roghan Rd at Roghan East,,-27.343598,153.058763,4,http://translink.com.au/stop/010625/gtfs/,0,,
10626,10626,Roghan Rd at Roghan East near Sovereign Pl,,-27.343733,153.058807,4,http://translink.com.au/stop/010626/gtfs/,0,,
10627,10627,Roghan Rd near Lindeman St,,-27.343384,153.056419,4,http://translink.com.au/stop/010627/gtfs/,0,,
10628,10628,Roghan Rd near Lindeman St,,-27.343263,153.056465,4,http://translink.com.au/stop/010628/gtfs/,0,,
1063,1063,"Vulture St at Cambridge Street, stop 8",,-27.480778,153.010292,2,http://translink.com.au/stop/001063/gtfs/,0,,
10630,10630,Church Rd near Keyatta St,,-27.352656,153.045851,4,http://translink.com.au/stop/010630/gtfs/,0,,
10631,10631,Church Rd at Keyatta Street,,-27.352464,153.046005,4,http://translink.com.au/stop/010631/gtfs/,0,,
10632,10632,Church Rd at Church-Battersby,,-27.355752,153.045296,4,http://translink.com.au/stop/010632/gtfs/,0,,
10633,10633,Church Rd at Church-Battersby,,-27.355367,153.045482,4,http://translink.com.au/stop/010633/gtfs/,0,,
10634,10634,Church Rd at Church Road South,,-27.359817,153.044633,4,http://translink.com.au/stop/010634/gtfs/,0,,
10635,10635,Church Rd at Church Road South,,-27.359273,153.04461,4,http://translink.com.au/stop/010635/gtfs/,0,,
10636,10636,Zillmere Rd at Zillmere South near Yukon St,,-27.36076,153.047538,4,http://translink.com.au/stop/010636/gtfs/,0,,
10637,10637,Zillmere Rd at Zillmere South near Yukon St,,-27.360941,153.047895,4,http://translink.com.au/stop/010637/gtfs/,0,,
10638,10638,Greenford St at Merri Merri Park,,-27.485491,152.93981,3,http://translink.com.au/stop/010638/gtfs/,0,,
10639,10639,Bielby Rd at Bielby Rise,,-27.484577,152.936211,3,http://translink.com.au/stop/010639/gtfs/,0,,
1064,1064,"Vulture St at West End, stop 7",,-27.480848,153.011631,1/2,http://translink.com.au/stop/001064/gtfs/,0,,
10640,10640,Bielby Rd at Bielby Rise,,-27.484617,152.936345,3,http://translink.com.au/stop/010640/gtfs/,0,,
10641,10641,Mukurta St near Binyara St,,-27.491979,152.93867,3,http://translink.com.au/stop/010641/gtfs/,0,,
10642,10642,"Strathpine Shopping Centre, stop C",,-27.307618,152.993263,5,http://translink.com.au/stop/010642/gtfs/,0,place_wesstr,C
10644,10644,Caloundra St at Janoah Gardens,,-27.46969,153.170651,4,http://translink.com.au/stop/010644/gtfs/,0,,
10645,10645,Caloundra St at Janoah Gardens,,-27.469328,153.170307,4,http://translink.com.au/stop/010645/gtfs/,0,,
10646,10646,Radford Rd at Manly Vista,,-27.467746,153.161738,4,http://translink.com.au/stop/010646/gtfs/,0,,
10647,10647,Radford Rd at Manly Vista,,-27.467873,153.161723,4,http://translink.com.au/stop/010647/gtfs/,0,,
10648,10648,Wondall Rd at Moreton Bay College,,-27.469426,153.150404,4,http://translink.com.au/stop/010648/gtfs/,0,,
10649,10649,Wondall Rd at Moreton Bay College,,-27.470004,153.15,4,http://translink.com.au/stop/010649/gtfs/,0,,
1065,1065,"Boundary St at West End, stop 7",,-27.480598,153.012199,1/2,http://translink.com.au/stop/001065/gtfs/,0,,
10650,10650,Preston Rd near Wynnum Rd,,-27.453185,153.159221,4,http://translink.com.au/stop/010650/gtfs/,0,,
10651,10651,Preston Rd near Randall Rd,,-27.453373,153.159518,4,http://translink.com.au/stop/010651/gtfs/,0,,
10652,10652,"Middle St near Troughton Rd, stop 53",,-27.561068,153.049672,3/4,http://translink.com.au/stop/010652/gtfs/,0,,
10653,10653,Bridgnorth St near Boynedale St,,-27.506019,153.111291,3,http://translink.com.au/stop/010653/gtfs/,0,,
10654,10654,Bridgnorth St near Boynedale St,,-27.50615,153.111079,3,http://translink.com.au/stop/010654/gtfs/,0,,
10655,10655,Scrub Rd at Winstanley East,,-27.508359,153.114691,3,http://translink.com.au/stop/010655/gtfs/,0,,
10656,10656,Scrub Rd at Winstanley East,,-27.509301,153.114633,3,http://translink.com.au/stop/010656/gtfs/,0,,
10657,10657,Scrub Rd at Kilmorey near Fairway Pl,,-27.514752,153.113468,3,http://translink.com.au/stop/010657/gtfs/,0,,
10658,10658,Scrub Rd at Kilmorey near Fairway Pl,,-27.515158,153.113518,3,http://translink.com.au/stop/010658/gtfs/,0,,
10659,10659,Scrub Rd at Greendale,,-27.521419,153.112297,3,http://translink.com.au/stop/010659/gtfs/,0,,
1066,1066,Gem Rd near Wyndarra St,,-27.517828,152.932893,3,http://translink.com.au/stop/001066/gtfs/,0,,
10660,10660,Scrub Rd at Greendale,,-27.520854,153.112284,3,http://translink.com.au/stop/010660/gtfs/,0,,
10662,10662,Fleming Rd at Chapel Woods,,-27.493936,152.943951,3,http://translink.com.au/stop/010662/gtfs/,0,,
10663,10663,McCullough St at Granadilla,,-27.572676,153.068941,4,http://translink.com.au/stop/010663/gtfs/,0,,
10664,10664,McCullough St at Granadilla,,-27.572553,153.069114,4,http://translink.com.au/stop/010664/gtfs/,0,,
10665,10665,Padstow Rd at Devonlea,,-27.573789,153.078229,4,http://translink.com.au/stop/010665/gtfs/,0,,
10666,10666,Padstow Rd at Devonlea,,-27.57434,153.080053,4,http://translink.com.au/stop/010666/gtfs/,0,,
10667,10667,McCullough St at Brooklands,,-27.570114,153.051793,4,http://translink.com.au/stop/010667/gtfs/,0,,
10668,10668,McCullough St at Brooklands,,-27.570427,153.053,4,http://translink.com.au/stop/010668/gtfs/,0,,
10669,10669,Lemke Rd at Bushview,,-27.331553,153.045275,4/5,http://translink.com.au/stop/010669/gtfs/,0,,
1067,1067,Federation St at Federation Park,,-27.452284,153.152568,4,http://translink.com.au/stop/001067/gtfs/,0,,
10670,10670,Lemke Rd at Bushview,,-27.331505,153.045424,4/5,http://translink.com.au/stop/010670/gtfs/,0,,
10671,10671,"Norris Rd near Barbour Rd, stop 46",,-27.324448,153.026417,5,http://translink.com.au/stop/010671/gtfs/,0,,
10672,10672,"Norris Rd near Barbour Rd, stop 46",,-27.324571,153.026538,5,http://translink.com.au/stop/010672/gtfs/,0,,
10673,10673,Railway Pde near Bayview Tce,,-27.368567,153.046378,4,http://translink.com.au/stop/010673/gtfs/,0,,
10675,10675,Piccadilly St near Haymarket St,,-27.372245,153.04075,4,http://translink.com.au/stop/010675/gtfs/,0,,
10676,10676,Piccadilly St near Sandra St,,-27.374168,153.039507,4,http://translink.com.au/stop/010676/gtfs/,0,,
10677,10677,Willcott St near Sunbury St,,-27.375458,153.040232,4,http://translink.com.au/stop/010677/gtfs/,0,,
10678,10678,Halsmere St near Danette St,,-27.376181,153.038322,4,http://translink.com.au/stop/010678/gtfs/,0,,
10679,10679,Creek Rd at Greenmeadows South,,-27.527074,153.095364,3,http://translink.com.au/stop/010679/gtfs/,0,,
1068,1068,Federation St at Federation Park,,-27.452327,153.152455,4,http://translink.com.au/stop/001068/gtfs/,0,,
10680,10680,Zillmere Rd near Halcomb St,,-27.359973,153.042178,4,http://translink.com.au/stop/010680/gtfs/,0,,
10686,10686,Kuran St at Gympie Rd,,-27.389874,153.032113,3,http://translink.com.au/stop/010686/gtfs/,0,,
10687,10687,Honeysuckle Way at The Parks,,-27.632736,153.057389,5,http://translink.com.au/stop/010687/gtfs/,0,,
10688,10688,Beaudesert Rd at Benhiam Street,,-27.619123,153.050351,5,http://translink.com.au/stop/010688/gtfs/,0,,
10689,10689,Nottingham Rd near Algester Rd,,-27.627866,153.030055,5,http://translink.com.au/stop/010689/gtfs/,0,,
1069,1069,Federation St near School Rd,,-27.452878,153.15101,4,http://translink.com.au/stop/001069/gtfs/,0,,
10690,10690,Algester Rd at Nottingham,,-27.628854,153.029152,5,http://translink.com.au/stop/010690/gtfs/,0,,
10691,10691,Algester Rd at Nottingham,,-27.62812,153.028891,5,http://translink.com.au/stop/010691/gtfs/,0,,
10692,10692,"Algester Rd at Parkinson, stop 90",,-27.63539,153.029342,5,http://translink.com.au/stop/010692/gtfs/,0,,
10693,10693,Mount Lindesay Hwy at Browns Plains,,-27.659632,153.038406,5,http://translink.com.au/stop/010693/gtfs/,0,,
10694,10694,Nottingham Rd near Algester Rd,,-27.627851,153.03101,5,http://translink.com.au/stop/010694/gtfs/,0,,
10695,10695,Honeysuckle Way at Calamvale,,-27.632249,153.053824,5,http://translink.com.au/stop/010695/gtfs/,0,,
10696,10696,Nottingham Rd at Lakewood,,-27.629782,153.041683,5,http://translink.com.au/stop/010696/gtfs/,0,,
10697,10697,Nottingham Rd at Lakewood,,-27.629603,153.041456,5,http://translink.com.au/stop/010697/gtfs/,0,,
10698,10698,Beams Rd at Taigum Shopping Centre,,-27.351845,153.049858,4,http://translink.com.au/stop/010698/gtfs/,0,,
107,107,William Street stop 107,,-27.474044,153.025419,1,http://translink.com.au/stop/000107/gtfs/,0,,
1070,1070,"Boundary St at Jane Street, stop 6",,-27.479406,153.012279,1,http://translink.com.au/stop/001070/gtfs/,0,,
10700,10700,"Montague Rd at Cordeaux Street, stop 14",,-27.488331,153.000178,2,http://translink.com.au/stop/010700/gtfs/,0,,
10702,10702,Phillips St at Enbrook Street,,-27.32792,153.038336,5,http://translink.com.au/stop/010702/gtfs/,0,,
10703,10703,"Merivale St near Russell St, stop 2A",,-27.476474,153.017588,1,http://translink.com.au/stop/010703/gtfs/,0,,
10704,10704,"McLennan St near Storkey St, stop 16",,-27.427516,153.0372,2,http://translink.com.au/stop/010704/gtfs/,0,,
10705,10705,"McLennan St near Bale St, stop 16",,-27.428139,153.037212,2,http://translink.com.au/stop/010705/gtfs/,0,,
10706,10706,"Albion Rd at Haddock Street, stop 15",,-27.428922,153.034622,2,http://translink.com.au/stop/010706/gtfs/,0,,
10707,10707,"Albion Rd at Haddock Street, stop 15",,-27.429058,153.03468,2,http://translink.com.au/stop/010707/gtfs/,0,,
10708,10708,Phillips St at Enbrook Street,,-27.327997,153.038135,5,http://translink.com.au/stop/010708/gtfs/,0,,
10709,10709,Stanley St at Gallery of Modern Art,,-27.471695,153.017417,1,http://translink.com.au/stop/010709/gtfs/,0,,
1071,1071,Jane Street Hail 'n' Ride,,-27.479066,153.010981,1/2,http://translink.com.au/stop/001071/gtfs/,0,,
10710,10710,Oconnell Tce near Sneyd St,,-27.448102,153.032094,1,http://translink.com.au/stop/010710/gtfs/,0,,
10711,10711,Honeysuckle Way at Calamvale,,-27.632362,153.053519,5,http://translink.com.au/stop/010711/gtfs/,0,,
10712,10712,Taragon St near Chervil St,,-27.314704,153.013103,5,http://translink.com.au/stop/010712/gtfs/,0,,
10714,10714,Zillmere Rd near Halcomb St,,-27.360188,153.042768,4,http://translink.com.au/stop/010714/gtfs/,0,,
10715,10715,Robinson Rd West near Fisher Pde,,-27.367318,153.040575,4,http://translink.com.au/stop/010715/gtfs/,0,,
10716,10716,Robinson Rd West at Fisher Parade,,-27.367463,153.040565,4,http://translink.com.au/stop/010716/gtfs/,0,,
10717,10717,Railway Pde near Innes St,,-27.368739,153.046916,4,http://translink.com.au/stop/010717/gtfs/,0,,
10718,10718,Grand Ave at Grand Avenue Lake,,-27.627095,152.963445,5,http://translink.com.au/stop/010718/gtfs/,0,,
10719,10719,Grand Ave at Grand Avenue Lake,,-27.626995,152.963535,5,http://translink.com.au/stop/010719/gtfs/,0,,
1072,1072,Federation St near School Rd,,-27.452763,153.151045,4,http://translink.com.au/stop/001072/gtfs/,0,,
10723,10723,"Esker St near Eagle Farm Rd, stop 54a",,-27.421698,153.120759,3,http://translink.com.au/stop/010723/gtfs/,0,,
10724,10724,"Seventeen Mile Rocks Rd at Mosman Court, stop 76",,-27.539951,152.953522,4,http://translink.com.au/stop/010724/gtfs/,0,,
10725,10725,"Wirraway Pde near Partridge St, stop 74",,-27.600971,152.97316,5,http://translink.com.au/stop/010725/gtfs/,0,,
10729,10729,"Macquarie St at Saratoga, stop 13A",,-27.460673,153.050158,2,http://translink.com.au/stop/010729/gtfs/,0,,
1073,1073,"Boundary St at Jane Street, stop 6",,-27.479207,153.01246,1,http://translink.com.au/stop/001073/gtfs/,0,,
10730,10730,"Strathpine Shopping Centre, stop E",,-27.30774,152.993693,5,http://translink.com.au/stop/010730/gtfs/,0,place_wesstr,E
10731,10731,Kennerley St near Rainbow St,,-27.321645,153.068533,4/5,http://translink.com.au/stop/010731/gtfs/,0,,
10732,10732,Albany Creek Rd at Leitchs Road,,-27.345633,152.976185,4,http://translink.com.au/stop/010732/gtfs/,0,,
10733,10733,Dillingen St near Ironbark Rd,,-27.493686,152.940001,3,http://translink.com.au/stop/010733/gtfs/,0,,
10734,10734,Dillingen St near Diamantina St,,-27.493797,152.940002,3,http://translink.com.au/stop/010734/gtfs/,0,,
10736,10736,Oconnell Tce at Hamilton Place,,-27.448644,153.034286,1,http://translink.com.au/stop/010736/gtfs/,0,,
10737,10737,Hamilton Pl near Jeays St,,-27.447972,153.035387,1,http://translink.com.au/stop/010737/gtfs/,0,,
10739,10739,"Commercial Rd at Florence Street, stop 13",,-27.454132,153.045884,1,http://translink.com.au/stop/010739/gtfs/,0,,
1074,1074,"Boundary St at West End Junction, stop 5",,-27.477732,153.012561,1,http://translink.com.au/stop/001074/gtfs/,0,,
10740,10740,"Commercial Rd near Leopold St, stop 12",,-27.453054,153.041594,1,http://translink.com.au/stop/010740/gtfs/,0,,
10741,10741,"Commercial Rd near Stratton St, stop 12",,-27.452894,153.041478,1,http://translink.com.au/stop/010741/gtfs/,0,,
10742,10742,"Algester Rd at Parkinson, stop 90",,-27.636898,153.030696,5,http://translink.com.au/stop/010742/gtfs/,0,,
10743,10743,Beaudesert Rd at Illaweena Street,,-27.637522,153.044795,5,http://translink.com.au/stop/010743/gtfs/,0,,
10745,10745,"Algester Rd at Parkinson East, stop 92",,-27.638567,153.040471,5,http://translink.com.au/stop/010745/gtfs/,0,,
10746,10746,"Algester Rd at Parkinson East, stop 92",,-27.638737,153.040656,5,http://translink.com.au/stop/010746/gtfs/,0,,
10747,10747,"Algester Rd at Lake Eyre Crescent, stop 91",,-27.638507,153.034434,5,http://translink.com.au/stop/010747/gtfs/,0,,
10748,10748,"Algester Rd at Lake Eyre Crescent, stop 91",,-27.638527,153.033753,5,http://translink.com.au/stop/010748/gtfs/,0,,
10749,10749,"Seventeen Mile Rocks Rd at Mosman Court, stop 76",,-27.539426,152.953218,4,http://translink.com.au/stop/010749/gtfs/,0,,
1075,1075,"Boundary St at West End Junction, stop 5",,-27.477756,153.0127,1,http://translink.com.au/stop/001075/gtfs/,0,,
10750,10750,"Rocks Riverside Park, stop 75",,-27.54147,152.955882,4,http://translink.com.au/stop/010750/gtfs/,0,,
10751,10751,"Rocks Riverside Park, stop 75",,-27.54134,152.955378,4,http://translink.com.au/stop/010751/gtfs/,0,,
10752,10752,Skyring Tce near Cunningham St,,-27.44984,153.043482,1,http://translink.com.au/stop/010752/gtfs/,0,,
10753,10753,"Windermere Ave at Ellerwood Place, stop 77",,-27.536792,152.952277,4,http://translink.com.au/stop/010753/gtfs/,0,,
10754,10754,"Windermere Ave at Ellerwood Place, stop 77",,-27.536845,152.952423,4,http://translink.com.au/stop/010754/gtfs/,0,,
10755,10755,Monier Rd at Monier Road Shops,,-27.558982,152.951521,4,http://translink.com.au/stop/010755/gtfs/,0,,
10756,10756,"Duporth Rd near Loyal St, stop 59",,-27.555035,152.958891,4,http://translink.com.au/stop/010756/gtfs/,0,,
10757,10757,"Duporth Rd near Seventeen Mile Rocks Rd, stop 59",,-27.553803,152.959318,4,http://translink.com.au/stop/010757/gtfs/,0,,
10758,10758,"Sinnamon Rd at Windermere Estate, stop 78",,-27.534144,152.952342,4,http://translink.com.au/stop/010758/gtfs/,0,,
10759,10759,"Sinnamon Rd at Windermere Estate, stop 78",,-27.534026,152.951963,4,http://translink.com.au/stop/010759/gtfs/,0,,
1076,1076,"Melbourne St at Manning Street, stop 4",,-27.476209,153.014145,1,http://translink.com.au/stop/001076/gtfs/,0,,
10760,10760,"Algester Rd at Lichfield Place, stop 93",,-27.638164,153.043837,5,http://translink.com.au/stop/010760/gtfs/,0,,
10761,10761,"Algester Rd at Lichfield Place, stop 93",,-27.638364,153.043654,5,http://translink.com.au/stop/010761/gtfs/,0,,
10762,10762,Illaweena St at Tamarisk Way,,-27.638974,153.049022,5,http://translink.com.au/stop/010762/gtfs/,0,,
10763,10763,Illaweena St at Tamarisk Way,,-27.63903,153.048514,5,http://translink.com.au/stop/010763/gtfs/,0,,
10764,10764,Illaweena St at Waterstone,,-27.639491,153.053279,5,http://translink.com.au/stop/010764/gtfs/,0,,
10765,10765,Illaweena St at Waterstone,,-27.639575,153.052317,5,http://translink.com.au/stop/010765/gtfs/,0,,
1077,1077,"Melbourne St at Cordelia Street, stop 3",,-27.475122,153.0161,1,http://translink.com.au/stop/001077/gtfs/,0,,
10770,10770,Mt Petrie Rd at Vivaldi Place,,-27.543427,153.121427,4,http://translink.com.au/stop/010770/gtfs/,0,,
10771,10771,New Cleveland Rd near Judd St,,-27.491651,153.158536,4,http://translink.com.au/stop/010771/gtfs/,0,,
10773,10773,New Cleveland Rd near Green Camp Rd,,-27.493199,153.168249,4,http://translink.com.au/stop/010773/gtfs/,0,,
10774,10774,New Cleveland Rd near Archer St,,-27.4931,153.167139,4,http://translink.com.au/stop/010774/gtfs/,0,,
10775,10775,New Cleveland Rd near Feathertail Pl,,-27.49251,153.163248,4,http://translink.com.au/stop/010775/gtfs/,0,,
10776,10776,New Cleveland Rd near Judd St,,-27.491724,153.158065,4,http://translink.com.au/stop/010776/gtfs/,0,,
10777,10777,Tilley Rd near Grassdale Rd,,-27.498826,153.151872,4,http://translink.com.au/stop/010777/gtfs/,0,,
10778,10778,Tilley Rd near London Rd,,-27.502773,153.150855,4,http://translink.com.au/stop/010778/gtfs/,0,,
1078,1078,"Melbourne St at Cordelia Street, stop 3",,-27.475493,153.015743,1,http://translink.com.au/stop/001078/gtfs/,0,,
10780,10780,"King George Square, platform 2A",,-27.468612,153.024236,1,http://translink.com.au/stop/010780/gtfs/,0,place_kgbs,2A
10781,10781,"King George Square, platform 1A",,-27.467881,153.023257,1,http://translink.com.au/stop/010781/gtfs/,0,place_kgbs,1A
10785,10785,"King George Square, platform 1C",,-27.4682,153.023619,1,http://translink.com.au/stop/010785/gtfs/,0,place_kgbs,1C
10786,10786,"King George Square, platform 2D",,-27.468114,153.023723,1,http://translink.com.au/stop/010786/gtfs/,0,place_kgbs,2D
10787,10787,"King George Square, platform 1D",,-27.468366,153.02379,1,http://translink.com.au/stop/010787/gtfs/,0,place_kgbs,1D
10788,10788,"King George Square, platform 2E",,-27.467949,153.023547,1,http://translink.com.au/stop/010788/gtfs/,0,place_kgbs,2E
10789,10789,"King George Square, platform 1E",,-27.468532,153.023961,1,http://translink.com.au/stop/010789/gtfs/,0,place_kgbs,1E
10790,10790,"King George Square, platform 2F",,-27.467795,153.023362,1,http://translink.com.au/stop/010790/gtfs/,0,place_kgbs,2F
10791,10791,"King George Square, platform 1F",,-27.468699,153.024132,1,http://translink.com.au/stop/010791/gtfs/,0,place_kgbs,1F
10792,10792,"Roma Street busway, platform 2",,-27.465936,153.019182,1,http://translink.com.au/stop/010792/gtfs/,0,place_RStbw,2
10793,10793,"Roma Street busway, platform 1",,-27.465855,153.018344,1,http://translink.com.au/stop/010793/gtfs/,0,place_RStbw,1
10794,10794,Roma Street busway,,-27.465834,153.018262,1,http://translink.com.au/stop/010794/gtfs/,0,place_RStbw,
10795,10795,"Boggo Road, platform 5",,-27.494044,153.030604,2,http://translink.com.au/stop/010795/gtfs/,0,place_boggo,5
10796,10796,"Boggo Road, platform 6",,-27.493932,153.030193,2,http://translink.com.au/stop/010796/gtfs/,0,place_boggo,6
10797,10797,"PA Hospital, platform 1",,-27.496767,153.034195,2,http://translink.com.au/stop/010797/gtfs/,0,place_PAH,1
10798,10798,"PA Hospital, platform 2",,-27.496841,153.033846,2,http://translink.com.au/stop/010798/gtfs/,0,place_PAH,2
10799,10799,Lower Level at PA Hospital station,,-27.496633,153.03398,2,http://translink.com.au/stop/010799/gtfs/,0,place_PAH,LL
108,108,George Street stop 108,,-27.473635,153.026068,1,http://translink.com.au/stop/000108/gtfs/,0,,
1080,1080,"Melbourne St at Manning Street, stop 4",,-27.476242,153.014353,1,http://translink.com.au/stop/001080/gtfs/,0,,
10800,10800,Mukurta St near Binyara St,,-27.491882,152.938564,3,http://translink.com.au/stop/010800/gtfs/,0,,
10802,10802,"Cultural Centre, platform 1",,-27.473232,153.019415,1,http://translink.com.au/stop/010802/gtfs/,0,place_ccbs,1
10803,10803,Grand Ave East near Ascot Ave,,-27.627464,152.969834,5,http://translink.com.au/stop/010803/gtfs/,0,,
10804,10804,"Moggill Rd at Kenmore Central, stop 35",,-27.507821,152.93893,3,http://translink.com.au/stop/010804/gtfs/,0,,
10805,10805,Mabb St near Aronia St,,-27.507312,152.929958,3,http://translink.com.au/stop/010805/gtfs/,0,,
1081,1081,"Browning St near Boundary Rd, stop 5",,-27.477727,153.01314,1,http://translink.com.au/stop/001081/gtfs/,0,,
10810,10810,Grand Ave East near Ascot Ave,,-27.627456,152.968325,5,http://translink.com.au/stop/010810/gtfs/,0,,
10813,10813,"Buranda busway, platform 2",,-27.497275,153.039582,2,http://translink.com.au/stop/010813/gtfs/,0,place_burand,2
10814,10814,"Buranda busway, platform 1",,-27.497022,153.039184,2,http://translink.com.au/stop/010814/gtfs/,0,place_burand,1
10815,10815,"Greenslopes, platform 2",,-27.511079,153.040395,2,http://translink.com.au/stop/010815/gtfs/,0,place_greens,2
10816,10816,"Greenslopes, platform 1",,-27.510793,153.040072,2,http://translink.com.au/stop/010816/gtfs/,0,place_greens,1
10817,10817,"Holland Park West, platform 2",,-27.528739,153.057514,3,http://translink.com.au/stop/010817/gtfs/,0,place_HPW,2
10818,10818,"Holland Park West, platform 1",,-27.528343,153.057272,3,http://translink.com.au/stop/010818/gtfs/,0,place_HPW,1
10819,10819,"Griffith University, platform 2",,-27.546738,153.064682,3,http://translink.com.au/stop/010819/gtfs/,0,place_GUbw,2
1082,1082,"Browning St near Boundary St, stop 5",,-27.477894,153.013113,1,http://translink.com.au/stop/001082/gtfs/,0,,
10820,10820,"Griffith University, platform 1",,-27.54655,153.064253,3,http://translink.com.au/stop/010820/gtfs/,0,place_GUbw,1
10821,10821,"Upper Mt Gravatt, platform 2",,-27.564228,153.081751,3/4,http://translink.com.au/stop/010821/gtfs/,0,place_UMG,2
10822,10822,"Upper Mt Gravatt, platform 1",,-27.564043,153.081306,3/4,http://translink.com.au/stop/010822/gtfs/,0,place_UMG,1
10823,10823,"Eight Mile Plains, platform 2",,-27.578719,153.102015,4,http://translink.com.au/stop/010823/gtfs/,0,place_empbs,2
10824,10824,"Eight Mile Plains, platform 1",,-27.578465,153.101774,4,http://translink.com.au/stop/010824/gtfs/,0,place_empbs,1
10826,10826,Grand Ave West near Centennial Way,,-27.625095,152.957196,5,http://translink.com.au/stop/010826/gtfs/,0,,
10827,10827,Inala Ave at Sherrington Park,,-27.596691,152.985368,5,http://translink.com.au/stop/010827/gtfs/,0,,
10828,10828,Inala Ave at Sherrington Park,,-27.59691,152.985562,5,http://translink.com.au/stop/010828/gtfs/,0,,
10829,10829,Gowan Rd at The Parks,,-27.630484,153.058308,5,http://translink.com.au/stop/010829/gtfs/,0,,
1083,1083,"Browning St at Russell Street, stop 6",,-27.479111,153.013958,1,http://translink.com.au/stop/001083/gtfs/,0,,
10830,10830,Gowan Rd at Parkside,,-27.625946,153.059412,5,http://translink.com.au/stop/010830/gtfs/,0,,
10831,10831,Learoyd Rd at Range View,,-27.59844,153.036696,4/5,http://translink.com.au/stop/010831/gtfs/,0,,
10832,10832,Learoyd Rd at Range View,,-27.598913,153.037863,4/5,http://translink.com.au/stop/010832/gtfs/,0,,
10833,10833,Learoyd Rd at Paradise,,-27.597664,153.027077,4/5,http://translink.com.au/stop/010833/gtfs/,0,,
10834,10834,Learoyd Rd at Paradise,,-27.597304,153.026508,4/5,http://translink.com.au/stop/010834/gtfs/,0,,
10835,10835,Griffith University Library,,-27.545954,153.064347,3,http://translink.com.au/stop/010835/gtfs/,0,,
10836,10836,"Seventeen Mile Rocks Rd at Pannard Street, stop 71",,-27.55524,152.963222,4,http://translink.com.au/stop/010836/gtfs/,0,,
10837,10837,"Glen Ross Rd at Bellwood St, stop 54",,-27.554,152.946277,4,http://translink.com.au/stop/010837/gtfs/,0,,
10838,10838,Klumpp Rd at Klumpp-Dawson,,-27.552733,153.077813,3,http://translink.com.au/stop/010838/gtfs/,0,,
10839,10839,Algester Rd at Glenfield,,-27.632307,153.02936,5,http://translink.com.au/stop/010839/gtfs/,0,,
1084,1084,"Browning St at Russell Street, stop 6",,-27.479443,153.014328,1,http://translink.com.au/stop/001084/gtfs/,0,,
10840,10840,Algester Rd at Glenfield,,-27.631681,153.029532,5,http://translink.com.au/stop/010840/gtfs/,0,,
10841,10841,Stockham Rd near Finnie Rd,,-27.332819,153.062335,4/5,http://translink.com.au/stop/010841/gtfs/,0,,
10842,10842,Stockham Rd near Blackwood Rd,,-27.332468,153.061783,4/5,http://translink.com.au/stop/010842/gtfs/,0,,
10843,10843,Bungama St near station Rd,,-27.325529,153.067918,4/5,http://translink.com.au/stop/010843/gtfs/,0,,
10845,10845,Barfoot St near Barefoot St,,-27.308083,153.04368,5,http://translink.com.au/stop/010845/gtfs/,0,,
1085,1085,"Browning St at Besant Street, stop 7",,-27.480815,153.015126,1,http://translink.com.au/stop/001085/gtfs/,0,,
10857,10857,"Underwood Rd near Warrigal Rd, stop 89",,-27.590278,153.086058,4,http://translink.com.au/stop/010857/gtfs/,0,,
10858,10858,"Underwood Rd near Warrigal Rd, stop 89",,-27.590401,153.086022,4,http://translink.com.au/stop/010858/gtfs/,0,,
10859,10859,"Underwood Rd at Mapleleaf Street, stop 88",,-27.590782,153.089463,4,http://translink.com.au/stop/010859/gtfs/,0,,
1086,1086,"Browning St at Besant Street, stop 7",,-27.48112,153.015477,1,http://translink.com.au/stop/001086/gtfs/,0,,
10860,10860,"Underwood Rd at Mapleleaf Street, stop 88",,-27.590946,153.089711,4,http://translink.com.au/stop/010860/gtfs/,0,,
10861,10861,"Gaskell St near Underwood Rd, stop 87",,-27.590612,153.092399,4,http://translink.com.au/stop/010861/gtfs/,0,,
10862,10862,"Gaskell St near Underwood Rd, stop 87",,-27.590648,153.092515,4,http://translink.com.au/stop/010862/gtfs/,0,,
10863,10863,"Gaskell St at Alan Crescent, stop 86",,-27.587593,153.092979,4,http://translink.com.au/stop/010863/gtfs/,0,,
10864,10864,"Gaskell St at Alan Crescent, stop 86",,-27.587695,153.093083,4,http://translink.com.au/stop/010864/gtfs/,0,,
10865,10865,"Gaskell St at Angel Street, stop 85",,-27.585348,153.094046,4,http://translink.com.au/stop/010865/gtfs/,0,,
10866,10866,Cultural Centre station,,-27.473642,153.018915,1,http://translink.com.au/stop/010866/gtfs/,0,place_ccbs,
10867,10867,"Gaskell St at The Glen, stop 84",,-27.583923,153.09716,4,http://translink.com.au/stop/010867/gtfs/,0,,
10868,10868,"Gaskell St at The Glen, stop 84",,-27.584445,153.096322,4,http://translink.com.au/stop/010868/gtfs/,0,,
10869,10869,"Logan Rd at Brandl Street, stop 83",,-27.581283,153.096264,4,http://translink.com.au/stop/010869/gtfs/,0,,
1087,1087,"Vulture St at State High, stop 8",,-27.481795,153.017965,1/2,http://translink.com.au/stop/001087/gtfs/,0,,
10870,10870,"Logan Rd at Brandl Street, stop 83",,-27.581025,153.09638,4,http://translink.com.au/stop/010870/gtfs/,0,,
10871,10871,"Logan Rd at Miles Platting Road, stop 82",,-27.576507,153.092832,4,http://translink.com.au/stop/010871/gtfs/,0,,
10872,10872,"Augstein St near Comer St, stop 59",,-27.571752,153.042731,4,http://translink.com.au/stop/010872/gtfs/,0,,
10873,10873,"Logan Rd near Liverpool St, stop 81",,-27.574176,153.091271,4,http://translink.com.au/stop/010873/gtfs/,0,,
10874,10874,Mount Cotton Rd at Alperton Rd,,-27.5589,153.164394,5,http://translink.com.au/stop/010874/gtfs/,0,,
10875,10875,Mount Cotton Rd at Alperton Rd,,-27.559131,153.163091,5,http://translink.com.au/stop/010875/gtfs/,0,,
10876,10876,Mount Cotton Rd near Moxon Rd,,-27.554419,153.144382,4,http://translink.com.au/stop/010876/gtfs/,0,,
10877,10877,Mount Cotton Rd near Moxon Rd,,-27.555167,153.146257,4,http://translink.com.au/stop/010877/gtfs/,0,,
10878,10878,Gainsborough Ave near Monet Cr,,-27.541467,153.122722,4,http://translink.com.au/stop/010878/gtfs/,0,,
10879,10879,Gainsborough Ave near Monet Cr,,-27.541665,153.123694,4,http://translink.com.au/stop/010879/gtfs/,0,,
1088,1088,"Vulture St at State High, stop 8",,-27.481765,153.016932,1/2,http://translink.com.au/stop/001088/gtfs/,0,,
10880,10880,Old Cleveland Rd near Creek Rd,,-27.501978,153.114705,3,http://translink.com.au/stop/010880/gtfs/,0,,
10881,10881,Old Cleveland Rd near Stanbrough Rd,,-27.506559,153.13814,4,http://translink.com.au/stop/010881/gtfs/,0,,
10882,10882,Old Cleveland Rd near Stanbrough Rd,,-27.50689,153.13791,4,http://translink.com.au/stop/010882/gtfs/,0,,
10884,10884,"The Sleeman Centre, stop D",,-27.509079,153.147224,4,http://translink.com.au/stop/010884/gtfs/,0,,
10885,10885,Old Cleveland Rd near Caradoc St,,-27.51719,153.18377,5,http://translink.com.au/stop/010885/gtfs/,0,,
10886,10886,Old Cleveland Rd near Tinchborne St,,-27.516541,153.182606,5,http://translink.com.au/stop/010886/gtfs/,0,,
10890,10890,Grieve Rd near Rochedale Rd,,-27.552132,153.129196,4,http://translink.com.au/stop/010890/gtfs/,0,,
10891,10891,"Boundary Rd at Postle Street, stop 47",,-27.568585,153.026027,4,http://translink.com.au/stop/010891/gtfs/,0,,
10892,10892,Boundary Rd at Beechcroft Street,,-27.571331,153.044973,4,http://translink.com.au/stop/010892/gtfs/,0,,
10893,10893,Boundary Rd near Macgroarty St,,-27.571494,153.045081,4,http://translink.com.au/stop/010893/gtfs/,0,,
10894,10894,"Boundary Rd at Augstein Street, stop 59",,-27.570965,153.042449,4,http://translink.com.au/stop/010894/gtfs/,0,,
10895,10895,Grieve Rd near Mt Gravatt Capalaba Rd,,-27.547424,153.124136,4,http://translink.com.au/stop/010895/gtfs/,0,,
10896,10896,Boundary Rd near Babbidge St,,-27.570736,153.055032,4,http://translink.com.au/stop/010896/gtfs/,0,,
10897,10897,"Pozieres Rd at Coromandel Street, stop 53a",,-27.528812,153.05629,3,http://translink.com.au/stop/010897/gtfs/,0,,
10898,10898,Honeysuckle Way at Sunflower,,-27.630444,153.048712,5,http://translink.com.au/stop/010898/gtfs/,0,,
10899,10899,Honeysuckle Way at Sunflower,,-27.630402,153.047738,5,http://translink.com.au/stop/010899/gtfs/,0,,
109,109,North Quay Island stop 109 near Adelaide St,,-27.470669,153.021744,1,http://translink.com.au/stop/000109/gtfs/,0,,
1090,1090,Hope St near Peel St,,-27.473297,153.016678,1,,0,,
10900,10900,Gympie Rd at Kedron North,,-27.399715,153.031758,3,http://translink.com.au/stop/010900/gtfs/,0,,
10901,10901,Murphy Rd at Butt Street,,-27.371831,153.035937,4,http://translink.com.au/stop/010901/gtfs/,0,,
10902,10902,Murphy Rd at Butt Street,,-27.371328,153.035887,4,http://translink.com.au/stop/010902/gtfs/,0,,
10903,10903,Lemke Rd at Sandgate AFC Ground,,-27.335984,153.044551,4,http://translink.com.au/stop/010903/gtfs/,0,,
10904,10904,Barbour Rd near Phillips St,,-27.324139,153.028731,5,http://translink.com.au/stop/010904/gtfs/,0,,
10905,10905,Wynnum Rd at Stradbroke Avenue,,-27.438825,153.161908,4,http://translink.com.au/stop/010905/gtfs/,0,,
10906,10906,Radford Rd near Wondall Rd,,-27.46694,153.155175,4,http://translink.com.au/stop/010906/gtfs/,0,,
10907,10907,Radford Rd near Lewis Neibling Pl,,-27.467037,153.156797,4,http://translink.com.au/stop/010907/gtfs/,0,,
10908,10908,Rochedale Rd near Priestdale Rd,,-27.584492,153.12432,4,http://translink.com.au/stop/010908/gtfs/,0,,
10910,10910,Rochedale Rd near Priestdale Rd,,-27.58461,153.124371,4,http://translink.com.au/stop/010910/gtfs/,0,,
10911,10911,Cribb Rd near Oakwood Way,,-27.524654,153.116898,3,http://translink.com.au/stop/010911/gtfs/,0,,
10912,10912,Cribb Rd near Cowell St,,-27.524319,153.115394,3,http://translink.com.au/stop/010912/gtfs/,0,,
10915,10915,Bridgnorth St at Belmont School,,-27.504187,153.114905,3,http://translink.com.au/stop/010915/gtfs/,0,,
10917,10917,Winstanley St at Firmiston,,-27.506691,153.107372,3,http://translink.com.au/stop/010917/gtfs/,0,,
10918,10918,Bridgnorth St at Belmont School,,-27.504169,153.113964,3,http://translink.com.au/stop/010918/gtfs/,0,,
10920,10920,Abbotsford Rd at Bowen Hills near Edgar St,,-27.445741,153.038086,1/2,http://translink.com.au/stop/010920/gtfs/,0,,
10923,10923,Moggill Rd at QCAT,,-27.530125,152.911556,4,http://translink.com.au/stop/010923/gtfs/,0,,
10924,10924,"Birdwood Rd at Wellers Hill, stop 2",,-27.522987,153.054258,2,http://translink.com.au/stop/010924/gtfs/,0,,
10925,10925,Birdwood Rd at Wellers Hill,,-27.523134,153.054383,2,http://translink.com.au/stop/010925/gtfs/,0,,
10926,10926,"Toowong, Jephson St",,-27.485733,152.990481,2,http://translink.com.au/stop/010926/gtfs/,0,,
10928,10928,Rode Rd at Downfall Creek,,-27.390214,153.004735,3,http://translink.com.au/stop/010928/gtfs/,0,,
10929,10929,Rode Rd at Downfall Creek,,-27.390193,153.005571,3,http://translink.com.au/stop/010929/gtfs/,0,,
10930,10930,Waterworks Rd at Ashgrove near Devoy St,,-27.44432,152.991541,2,http://translink.com.au/stop/010930/gtfs/,0,,
10931,10931,Troughton Rd at QEII Hospital,,-27.559268,153.050525,3/4,http://translink.com.au/stop/010931/gtfs/,0,,
10934,10934,Pickering St at Pickering West,,-27.418509,152.98689,3,http://translink.com.au/stop/010934/gtfs/,0,,
10935,10935,Gladstone St at Moorooka South near Coin St,,-27.546263,153.018618,3,http://translink.com.au/stop/010935/gtfs/,0,,
10936,10936,Queensport Rd at Queensport North,,-27.458138,153.105909,3,http://translink.com.au/stop/010936/gtfs/,0,,
10937,10937,Queensport Rd at Queensport North,,-27.458177,153.106046,3,http://translink.com.au/stop/010937/gtfs/,0,,
10938,10938,Meadowlands Rd at Meadowlands,,-27.49231,153.107192,3,http://translink.com.au/stop/010938/gtfs/,0,,
10939,10939,Meadowlands Rd at Meadowlands near Bedivere St,,-27.492111,153.107188,3,http://translink.com.au/stop/010939/gtfs/,0,,
10940,10940,Pickering St at Pickering West,,-27.418364,152.986744,3,http://translink.com.au/stop/010940/gtfs/,0,,
10941,10941,"Abel St near Robinson St, stop 45",,-27.540764,153.017268,3,http://translink.com.au/stop/010941/gtfs/,0,,
10942,10942,"Abel St near Robinson St, stop 45",,-27.540635,153.017153,3,http://translink.com.au/stop/010942/gtfs/,0,,
10943,10943,"Robinson St near Hamilton Rd, stop 44a",,-27.538782,153.017987,3,http://translink.com.au/stop/010943/gtfs/,0,,
10944,10944,"Anson St near Muriel Ave, stop 46",,-27.542194,153.015383,3,http://translink.com.au/stop/010944/gtfs/,0,,
